name|latitude|longitude
대구운암초등학교|35.93570075|128.5656283
홈플러스 대구점|35.8814725|128.5957711
옥산초등학교|35.88089463|128.5978735
칠성동주민센터|35.879228|128.600019
경명여자중학교|35.88072859|128.5984327
경명여자고등학교|35.88072859|128.5984327
LG전자베스트샵 침산점|35.8829555|128.5905945
대성산업(주)대성주유소|35.8820362|128.5900788
대성산업㈜대구석유가스사업부|35.8813688|128.5899238
에코주유소|35.89962075|128.5809587
SK직영강남고속주유소|35.90001368|128.5836911
오페라주유소|35.8846168|128.5975673
침산공원(A)|35.896657|128.584962
침산공원(B)|35.897221|128.5848591
국민건강공단 대구북부지사|35.887261|128.597518
SK네트웍스㈜경대주유소|35.8865315|128.5976334
침산1동주민센터|35.8903277|128.581354
칠성초등학교|35.88703349|128.5932396
화성투엠빌딩|35.8892511|128.5915207
침산중학교|35.89009204|128.5884725
기독교방송국|35.8874484|128.5984509
통일로주유소|35.880556|128.596661
정다운주유소|35.80956661|128.6191886
두산초등학교|35.83259685|128.6260882
대자연주유소|35.80837886|128.6209301
수성중학교|35.82587242|128.6072064
파동초등학교|35.82468309|128.6077313
대구장애인종합복지관|35.82695723|128.6069494
성동초등학교|35.8409043|128.6322828
패션디자인개발자원센터|35.9061485|128.6117408
한성병원|35.8762551|128.597886
대구꽃백화점|35.876907|128.5980105
북구자원봉사센터|35.8772927|128.5917892
북부소방서|35.87800191|128.5923197
롯데백화점|35.8758942|128.5961298
대구역|35.8758942|128.5961298
지하철 대구역|35.87634361|128.5972152
대성시장|35.87644946|128.6009707
범물근린공원|35.81840498|128.6433597
대명11동 치안센터 화장실|35.83961916|128.5635867
영선시장|35.85249423|128.5929864
중앙로관광버스전용주차장|35.87389536|128.5949301
반월당클래시아 2차|35.86472841|128.5948698
약령시서문공영주차장|35.8677228|128.5904892
북성로 공중화장실|35.87370397|128.5896908
대구 메디스퀘어 클래시아|35.86528491|128.5925957
늘열린성모병원|35.86210036|128.5995033
달성토성 커뮤니티센터|35.8730164|128.5797877
순종황제 어가길 쉼터|35.87383443|128.5853394
남산동커뮤니티센터|35.85983364|128.589675
에코한방웰빙체험관|35.86793848|128.5892823
향촌수제화센터|35.87285609|128.5918437
계산예가 공중화장실|35.86720633|128.5878706
센트럴시티 오피스텔|35.86982968|128.5877682
김광석길 공중화장실|35.86116116|128.6072136
김광석 스토리하우스|35.85901498|128.6056361
삼덕마루|35.86463999|128.6090451
수창공원|35.87598014|128.5841072
수창청춘맨숀|35.87539194|128.5838474
남산어린이공원|35.85825204|128.5813272
중구보건소 및 노인복지관|35.87790436|128.5833648
북성로 역사전통문화마을 기술예술융합소|35.8733028|128.5926444
메디컬스타빌딩|35.86544691|128.5827086
메디컬빌딩|35.863997|128.6005709
누네안과병원(밝은빛하이눈사옥)|35.86375138|128.6019265
국채보상운동기념공원 공영주차장|35.86833404|128.6034536
교동공영주차장|35.87372488|128.598395
김광석길 공영주차장|35.85930118|128.606415
흥국생명㈜ 대구사옥|35.8711717|128.5934479
흥국석유㈜ 동인주유소|35.87151175|128.6047619
KT대구지사(신관)|35.86968078|128.603556
케이티 에스테이트(본관)|35.86968078|128.603556
LG유플러스 대구동인사옥|35.87127753|128.6047329
MMC만경관|35.87096131|128.5904232
SC제일은행|35.87257376|128.5960719
SK텔레콤빌딩|35.86396883|128.6009458
달성공원주유소|35.87542073|128.5816412
서문시장2지구|35.86881524|128.5795331
푸른병원|35.87597039|128.5889961
향촌문화관|35.8734065|128.5941956
화성파크드림시티|35.87007647|128.6022664
남산역(3호선)|35.85668201|128.5832272
신남역(청라언덕역)(3호선)|35.86415968|128.582367
서문시장역(3호선)|35.86979356|128.5822422
달성공원역(3호선)|35.87564391|128.5820858
협성고등학교|35.83809438|128.598108
흥국생명보험㈜|35.86602903|128.594513
SK네트웍스㈜풍국주유소|35.87272385|128.6056502
비산1동 행정복지센터|35.8811712|128.5689696
비산119안전센터|35.8804537|128.5720161
서구 구민건강증진센터|35.88016031|128.5724
이현119안전센터|35.86907881|128.5441394
서부소방서|35.88187632|128.5543847
서부수도사업소|35.8651265|128.5487479
한국염색기술연구소|35.88198993|128.5441819
한국섬유개발연구원|35.86820659|128.5460932
대구의료원|35.85967414|128.5385415
한국전력 서대구지점|35.86983584|128.5705441
내당119안전센터|35.85943719|128.5552615
서구보건소|35.87232184|128.5592911
공단역|35.89180916|128.5536575
원대역|35.8877795|128.5743934
북구청역|35.88398239|128.5813653
내당4동 행정복지센터|35.86074852|128.551417
서대구우체국|35.86680233|128.5551885
비원건강증진센터|35.88688587|128.5586198
비원도서관|35.88609089|128.5692882
원고개도서관|35.88187546|128.5707951
청소년문화의집|35.8655137|128.5486315
비산4동 행정복지센터|35.86975414|128.5743068
비산5동 행정복지센터|35.88632416|128.5696427
비산6동 행정복지센터|35.87630338|128.5690951
비산7동 행정복지센터|35.88795717|128.5535556
평리1동 행정복지센터|35.87559726|128.5632616
평리2동 행정복지센터|35.8712199|128.563645
평리3동 행정복지센터|35.87595437|128.5613021
서구청|35.87232184|128.5592911
평리4동 행정복지센터|35.86734019|128.5567977
평리5동 행정복지센터|35.87377759|128.5487436
평리6동 행정복지센터|35.87519337|128.5482485
원대동 행정복지센터|35.88680262|128.5743962
상중이동 행정복지센터|35.86697716|128.5461136
서구종합사회복지관|35.86104115|128.563321
서구장애인재활센터|35.86427185|128.5704299
서구지역자활센터|35.86341985|128.5699791
서구노인복지회관|35.87555433|128.5640668
서구청소년수련관|35.87362503|128.5454766
서구제일사회복지관|35.8857236|128.578884
평산지구대|35.87335246|128.5714816
이현지구대|35.8690451|128.5439572
대구서부경찰서|35.87182807|128.5584532
서도지구대|35.87099967|128.5595132
서문우체국|35.86794734|128.577123
비산우체국|35.87629697|128.570964
비산7동우체국|35.88838056|128.5606557
달서천복개도로 남편|35.88441566|128.5653879
감삼테니스장|35.85864436|128.5521819
서부도서관|35.87245023|128.5577302
내당1동 행정복지센터|35.86066081|128.5606921
내당2.3동 행정복지센터|35.86727483|128.5745323
내당4동 행정복지센터|35.85897213|128.5516436
노인복지관|35.85897213|128.5516436
비산2.3동 행정복지센터|35.87580089|128.5747143
구민운동장|35.87364134|128.5429509
망우당공원 서편화장실|35.874807|128.640977
단산유적산책로|35.87586557|128.6425441
위남공원|35.87600495|128.641577
대구선 아양공원|35.87640522|128.643941
노비아갈라|35.8879967|128.6517102
서원 kingmill|35.87832515|128.7304879
영남이공대 학생회관|35.84716173|128.5865487
영남이공대 토목관|35.84716173|128.5865487
영남이공대 희망관|35.84716173|128.5865487
심인고 체육관|35.84969944|128.5783332
심인고 교사동|35.84969944|128.5783332
심인고 정보관|35.84969944|128.5783332
심인고 본관|35.84969944|128.5783332
심인고 동관|35.84969944|128.5783332
심인중 서관|35.84969944|128.5783332
혁신도시주유소|35.87262427|128.7381273
대림치안센터|35.87536824|128.7549147
안심주유소|35.87174849|128.7366658
옻골|35.874046|128.639578
동화사|36.00225583|128.7028821
이시아폴리스 태왕아너스 상가지점|35.92052117|128.6405026
효경병원|35.87586557|128.6425441
대구효목초등학교|35.87600495|128.641577
대동병원|35.87640522|128.6439413
성원빌딩|35.88560445|128.6349346
대구시민안전테마파크|35.879465|128.635851
이시아폴리스 라이프스타일센터|35.9215394|128.637362
강동노인복지회관|35.86575948|128.7058238
안심공공도서관|35.8590312|128.701814
도평동주민센터|35.90997576|128.65013
동구공예전시장|35.911917|128.6420975
파티마병원|35.88384877|128.6229896
광복회조양회관|35.8770986|128.654603
대원주유소|35.8829273|128.6448824
㈜경북가스|35.88071824|128.635844
SK엔크린효동로주유소|35.883342|128.6435556
효목시장|35.88291358|128.6427251
효목1동주민센터|35.8816142|128.6449448
대구일마이스터고등학교|35.88205179|128.6472206
대구효동초등학교|35.88412597|128.6447523
망우공원|35.893708|128.638279
동촌유원지 녹수대|35.97226|128.728041
경북일보|35.87518|128.6250668
KT효목사옥|35.8786797|128.6335672
효목주유소|35.879266|128.6346735
효목2치안센터|35.8803427|128.6367148
데이콤경북지사|35.8794653|128.635851
대구지방법원|35.87893114|128.6355519
팔공정보문화센터|35.87511048|128.6344813
해맞이동산|35.882909|128.6485644
효목2동주민센터|35.8781522|128.6412466
동부허병원|35.8726473|128.6357572
일호주유소|35.873153|128.6379628
동구시장|35.8740457|128.639578
효목동우체국|35.8753855|128.640342
한국전력공사 동대구지점|35.8748071|128.6409771
대구서촌초등학교|35.98040326|128.6317455
만남주유소|35.9681394|128.6298684
공산파출소|35.97914413|128.6336841
팔공산자연공원5|35.9935605|128.6813231
팔공산자연공원6|35.994133|128.6814789
공산주유소|35.94023587|128.6453868
신숭겸장군유적지|35.94210574|128.6409753
현이주유소|35.9606183|128.6319242
동북주유소|35.95305643|128.6343569
해서초등학교|35.9180615|128.643059
대구공항|35.89988945|128.6375558
팔공산I.C주유소|35.8964705|128.6404051
SK네트웍스㈜ 공항셀프주유소|35.8971279|128.6401579
공항시장|35.896308|128.6389305
공항랜드주유소|35.8958792|128.6410795
하나주유소|35.8960149|128.640138
지저동주민센터|35.9935605|128.6813231
팔공산자연공원7|35.97226|128.7280408
팔공산자연공원8|35.9708248|128.7255456
팔공산자연공원9 (파계지구주차장)|35.99089789|128.637144
동촌유원지|35.878211|128.6546178
아양아트센터|35.87956478|128.6519603
효목1치안센터|35.88483936|128.6405457
대구 대학교 대강당|35.85594572|128.5750742
율하체육공원 관리실|35.85992363|128.69284
율하체육공원 생태연못|35.85992363|128.69284
율하체육공원 잔디구장|35.85992363|128.69284
안일초등학교|35.87142447|128.6952236
율하지하철역|35.98790526|128.6943198
대구율하초등학교|35.86781358|128.7015369
입석중학교|35.89105302|128.6448024
동촌종합사회복지관|35.8938883|128.6449391
동대구우체국|35.8923652|128.6442378
동촌농협|35.89074402|128.6423597
대구입석초등학교|35.89069277|128.6439976
용계지하철역|35.87624356|128.6816456
대성산업㈜ 강촌대성주유소|35.87551034|128.6760278
화랑주유소|35.8748179|128.6768034
동대구터미널주유소|35.8729949|128.6870556
동도주유소|35.8718719|128.6899322
동도LPG충전소|35.87158581|128.6901696
㈜한대동부주유소|35.87488087|128.6873122
안심2동주민센터|35.8754256|128.687081
팔공산자연공원1|35.87691901|128.67844
팔공산자연공원10 (파계지구사무실옆)|35.9938564|128.6378364
팔공산자연공원11|35.87624356|128.681646
팔공산자연공원2|35.87551034|128.6760278
늘푸른알뜰주유소|35.98790526|128.6943218
팔공산자연공원3|35.874818|128.676803
율하체육공원 축구장|35.85992363|128.69284
팔공산자연공원4|35.98790526|128.6943218
롯데쇼핑프라자|35.86846302|128.6933316
사랑어린이공원|35.871872|128.6899322
믿음어린이공원|35.87158581|128.6901696
율하근린공원|35.87488087|128.6873122
율하주유소|35.87302101|128.6998251
샛터근린공원|35.991546|128.698648
봉무공원주차장|35.93576399|128.6442392
봉무공원4|35.92017148|128.649974
봉무공원3|35.92017148|128.649974
봉무공원2|35.92017148|128.649974
봉무공원1|35.92017148|128.649974
불로봉무동주민센터|35.9103078|128.6392874
영신중학교|35.91925526|128.6473981
영신고등학교|35.91925526|128.6473981
대구영신초등학교|35.91925526|128.6473981
국제주유소|35.93241037|128.6435437
공산중학교|35.95506586|128.6906832
케이에이㈜직영|35.8828949|128.6630981
강남병원|35.883069|128.6630316
현대상가시장|35.88278731|128.6657517
세경방촌주유소|35.87958564|128.6717863
방촌치안센터|35.879403|128.6716853
방촌지하철역|35.87996746|128.6699917
해안동주민센터|35.8820761|128.6716797
해안지하철역|35.88382759|128.6590925
방촌주유소|35.8780635|128.6744471
스타하우스|35.87813938|128.6739461
대구용호초등학교|35.87735702|128.6723772
국가대표 제2주유소|35.8776654|128.664889
천광주유소|35.8768668|128.662867
대구방촌초등학교|35.88065514|128.6630347
동촌중학교|35.882418|128.6596605
대구시농업기술센터|35.88008451|128.6602502
대구동촌초등학교|35.882078|128.658931
SK동호주유소|35.86714446|128.7224332
반야월주유소|35.8723123|128.7105107
대구선 반야월공원(역사도서관)|35.872504|128.724961
대구선 동촌공원|35.876033|128.687252
신천도서관|35.871472|128.617757
DTC섬유박물관(대구경제자유구역청)|35.91910021|128.640296
레일카페 화장실|35.86259146|128.737239
동화천 화장실|35.946469|128.637096
불로천 화장실|35.908637|128.646165
금호강 하천변 화장실|35.874765|128.664395
금호강 하천변 화장실|35.877086|128.662044
금호강 하천변 화장실|35.894589|128.633744
연갤러리화장실|35.869001|128.743566
연생태관화장실|35.864218|128.737165
이마트 반야월점|35.8708661|128.7274592
대원석유㈜ 대신주유소|35.87019641|128.7297797
대구교육연수원|35.8724248|128.7024201
팔공노인복지회관|35.8874423|128.6309954
신기중학교|35.86816599|128.7023592
안심1동주민센터|35.8703905|128.7021131
반야월종합시장|35.8724248|128.7024201
대구숙천초등학교|35.8769766|128.7533069
대구반야월초등학교|35.86827367|128.7107622
안심3,4동주민센터|35.87031838|128.7109479
현대우성오일뱅크|35.86577692|128.7114392
금호강주유소|35.9002891|128.62974
불로봉무동우체국|35.92013993|128.6385937
불로전통시장|35.91040163|128.6419419
신암선열공원|35.890622|128.6311237
신암로주유소|35.88107825|128.6121835
한국장학재단|35.8811634|128.6129585
대구공업고등학교|35.88321428|128.6141712
제일안과병원|35.881828|128.6147578
관광고등학교|35.8900476|128.6323697
한국건강관리협회 대구시지부|35.868786|128.6235479
신암중학교|35.8905698|128.6340584
신암5동주민센터|35.8897559|128.6330629
신암1치안센터|35.8857464|128.6165181
대구기상대|35.8855468|128.6189625
신암주유소|35.88554636|128.6155319
신암근린공원|35.88300524|128.6192562
동부여성문화회관|35.89041434|128.6223307
동부도서관|35.8901537|128.6215946
백두산주유소|35.89136623|128.6239094
신암5치안센터|35.889629|128.6346923
평화시장|35.88300524|128.6192562
파티마병원|35.88384877|128.6229896
상수도동부사업소|35.880207|128.6140215
신암2동주민센터|35.8799695|128.6127068
동구청|35.88655942|128.6354741
동대구역|35.87943775|128.6287185
신암4동주민센터|35.8850364|128.6293294
대구덕성초등학교|35.88210557|128.6284773
KT 동대구지사|35.88422588|128.6268198
바로본병원|35.8684136|128.6151819
동대구대성빌딩|35.8750542|128.6238218
신천3동주민센터|35.87541517|128.6237458
신천지하철역|35.87463187|128.6176509
동부소방서|35.87598585|128.6252252
동대구역치안센터|35.8773368|128.6263248
신천치안센터|35.8699333|128.6148406
송라시장|35.87448676|128.6153095
동보한방의원|35.874035|128.6175126
대구효신초등학교|35.8726276|128.6321105
동신초등학교|35.869074|128.628991
동부주유소|35.8727469|128.6346617
신대한LPG제1충전소|35.87604816|128.6219491
효신시장|35.8744512|128.6326144
신천4동주민센터|35.8717286|128.629306
신천4동우체국|35.8761387|128.628287
신천1,2동주민센터|35.8699333|128.6148406
KT&G 동대구지점|35.86800482|128.628734
동대구세무서|35.8673843|128.629075
MH컨벤션웨딩|35.867868|128.6272081
㈜아모레퍼시픽|35.8673211|128.6272603
LG텔레콤 대구교환국|35.8697765|128.6265246
극동주유소|35.8751122|128.6213294
동대구역전시장|35.87430058|128.6205261
대구신천초등학교|35.87165608|128.6210093
대성산업㈜하이웨이주유소|35.8676734|128.6236282
㈜영남일보|35.8696738|128.6249367
대구경북디자인센타|35.8714021|128.6248352
대구상공회의소|35.8710897|128.624959
스마트 벤처창업 학교|35.8723182|128.624827
입석중학교|35.89105302|128.6448024
대구율하초등학교|35.86781358|128.7015369
율하지하철역|35.86977924|128.6927795
안일초등학교|35.87142447|128.6952236
율하체육공원 잔디구장|35.85992363|128.69284
율하체육공원 생태연못|35.85992363|128.69284
율하체육공원 관리실|35.85992363|128.69284
율하주유소|35.87302101|128.6998251
롯데쇼핑프라자|35.86846302|128.6933316
팔공산자연공원4|35.98790526|128.6943218
율하체육공원 축구장|35.85992363|128.69284
늘푸른알뜰주유소|35.98790526|128.6943218
㈜한대동부주유소|35.87488087|128.6873122
동도LPG충전소|35.87158581|128.6901696
동도주유소|35.8718719|128.6899322
동대구터미널주유소|35.8729949|128.6870556
화랑주유소|35.8748179|128.6768034
대성산업㈜ 강촌대성주유소|35.87551034|128.6760278
용계지하철역|35.87624356|128.6816456
동대구고속주유소|35.87691901|128.6784404
동진주유소|35.87753115|128.6782404
용계치안센터|35.8758176|128.6814593
조일공업고등학교|35.88208666|128.6944543
대구벤처센타|35.872829|128.6248342
벼룩시장|35.87350785|128.6248207
천일주유소|35.8754396|128.6805517
㈜삼양사|35.8746811|128.6248621
청구중학교|35.86865579|128.6205717
청구고등학교|35.86865579|128.6205717
효목시장|35.88291358|128.6427251
SK엔크린효동로주유소|35.883342|128.6435556
㈜경북가스|35.88071824|128.635844
대원주유소|35.8829273|128.6448824
광복회조양회관|35.8770986|128.654603
효목1치안센터|35.88483936|128.6405457
아양아트센터|35.87956478|128.6519603
팔공산자연공원9 (파계지구주차장)|35.99089789|128.637144
팔공산자연공원8|35.9708248|128.7255456
팔공산자연공원7|35.97226|128.7280408
지저동주민센터|35.99357783|128.6813168
하나주유소|35.8960149|128.640138
공항랜드주유소|35.8958792|128.6410795
공항시장|35.896308|128.6389305
SK네트웍스㈜ 공항셀프주유소|35.8971279|128.6401579
팔공산I.C주유소|35.8964705|128.6404051
대구공항|35.89988945|128.6375558
동북주유소|35.95305643|128.6343569
현이주유소|35.9606183|128.6319242
신숭겸장군유적지|35.94210574|128.6409753
공산주유소|35.94023587|128.6453868
팔공산자연공원6|35.994133|128.6814789
팔공산자연공원5|35.9935605|128.6813231
공산파출소|35.97914413|128.6336841
만남주유소|35.9681394|128.6298684
대구서촌초등학교|35.98040326|128.6317455
대구입석초등학교|35.89069277|128.6439976
동촌농협|35.89074402|128.6423597
동대구우체국|35.8923652|128.6442378
동촌종합사회복지관|35.8938883|128.6449391
대구교대 학생회관|35.85143184|128.5877407
대구교대제2강의실|35.85143184|128.5877407
대구교대복지관|35.85143184|128.5877407
대구교대 도서관|35.85104838|128.5902966
영남이공대학교 건축관|35.84716173|128.5865487
이공대 목공예관|35.84716173|128.5865487
영남 이공대 도서관|35.84716173|128.5865487
영남이공대 공학관|35.84716173|128.5865487
영남이공대 사회관|35.84716173|128.5865487
영남이공대 산학관|35.84716173|128.5865487
영남이공대 본관|35.84716173|128.5865487
영남이공대 예지관|35.84716173|128.5865487
영남이공대 쉼터|35.84716173|128.5865487
이공대 전기관|35.847131|128.5865487
영남이공대 체육관|35.84716173|128.5865487
영남이공대 정보관|35.84716173|128.5865487
영남이공대 컴퓨터관|35.84716173|128.5865487
비젼디엔씨|35.87724144|128.7321517
코아루파크뷰|35.87902292|128.7328416
동원LPG주유소|35.87470911|128.7390231
서원 kingmill|35.87832515|128.7304879
동화사|36.00225583|128.7028821
동구공예전시장|35.911917|128.6420975
도평동주민센터|35.90997576|128.65013
안심공공도서관|35.8590312|128.701814
강동노인복지회관|35.86575948|128.7058238
이시아폴리스 라이프스타일센터|35.9215394|128.637362
대동병원|35.87640522|128.6439413
대구효목초등학교|35.87600495|128.641577
효경병원|35.87586557|128.6425441
이시아폴리스 태왕아너스 상가지점|35.92052117|128.6405026
한국전력공사 동대구지점|35.8748071|128.6409771
일호주유소|35.873153|128.6379628
동부허병원|35.8726473|128.6357572
효목2동주민센터|35.8781522|128.6412466
팔공정보문화센터|35.87511048|128.6344813
대구지방법원|35.87893114|128.6355519
데이콤경북지사|35.8794653|128.635851
효목주유소|35.879266|128.6346735
KT효목사옥|35.8786797|128.6335672
경북일보|35.87516976|128.6250668
대구효동초등학교|35.88412597|128.6447523
대구교대제1강의동 화장실|35.85143184|128.5877407
대구교대과학관|35.85143184|128.5877407
대구교대 강당 화장실|35.85143184|128.5877407
대구일마이스터고등학교|35.88205179|128.6472206
효목1동주민센터|35.8816142|128.6449448
서문시장 5지구|35.86809048|128.5784315
대구출입국관리사무소|35.88884432|128.6499925
동구보건소|35.88812099|128.651234
대구송정초등학교|35.87060736|128.7340267
공산동주민센터|35.94023401|128.6442077
동부경찰서|35.87431782|128.7206442
대구동부고등학교|35.87428988|128.7190714
동서시장|35.887254|128.633544
성동시장|35.88381833|128.630272
사복노을근린공원 화장실|35.87724873|128.749057
동내향수근린공원 화장실|35.87783786|128.7372757
신서중앙근린공원 화장실|35.88095084|128.7341237
송호지근린공원 화장실|35.88941338|128.7054895
팔공산자연공원12 (파계지구야영장)|35.99089789|128.637144
㈜신세계동대구복합환승센터(터미널)|35.87793987|128.6291892
든든우리병원|35.88048334|128.6124811
반야월지하철역|35.86620949|128.7132065
대구도시가스(주)동호CNG충전소|35.86471972|128.7142948
대구방짜유기박물관|35.96545433|128.7013641
달구벌고등학교|35.99454187|128.6108128
덕산주유소|35.99143172|128.6164002
팔공산LPG충전소|35.99187168|128.6161164
두바이주유소|35.8717663|128.747306
혁신도시주유소|35.87262427|128.7381273
송정오일뱅크|35.8723081|128.736347
동촌우체국|35.885806|128.651282
㈜부강에너지 착한주유소|35.88721022|128.6511324
열경요양병원|35.88444425|128.6564226
지성365할인주유소|35.884319|128.657984
홈플러스 동촌점|35.886156|128.65566
미니주유소|35.887487|128.647908
㈜아카데미극장|35.86999575|128.5943029
패션주얼리특구고객지원센터|35.87416567|128.5967594
하나은행빌딩|35.86503915|128.5941661
삼성생명빌딩(하서지점)|35.86988978|128.5883746
한국은행 대구경북본부|35.8679686|128.6031575
종각빌딩|35.86937715|128.6044527
한전대구전력관리처|35.87256523|128.6014256
행운주유소|35.87635565|128.589518
현대백화점|35.86663023|128.5906256
㈜제일진흥|35.86832088|128.593972
현대증권 빌딩(SH타워)|35.86485389|128.5951724
현대캐피탈㈜대구사옥|35.86853714|128.5939762
협성교육재단 협성빌딩|35.86717603|128.5940493
대구YMCA청소년회관|35.87063056|128.5898671
호수빌딩|35.86935551|128.601189
영남동창회관|35.86206085|128.582108
롯데영프라자 대구점|35.87137263|128.594734
하나은행(구.외환은행 대구지점)|35.87141335|128.593793
우리은행 대구지점|35.87034114|128.5942797
우석빌딩|35.85709738|128.5925677
원진빌딩|35.86897372|128.6093663
일광빌딩(센트럴M)-에스닷중앙로점|35.86775346|128.5938988
대암프라이빗(ZARA)|35.8685966|128.594558
정무빌딩|35.87357689|128.5875802
조양주유소|35.86265962|128.6031888
㈜유화몰|35.86694354|128.5972698
㈜대구백화점|35.86946137|128.5959601
㈜대구프뢰벨|35.86076109|128.5935141
㈜동서개발|35.86322867|128.5754508
중구선거관리위원회|35.86606478|128.587231
중부경찰서|35.87188062|128.5904649
중앙로역(1호선)|35.87097958|128.5940223
중앙파출소|35.8696387|128.588821
회당빌딩|35.85580554|128.5986032
진석타워|35.86509323|128.6026706
코리아빌딩|35.87309393|128.5948245
태남빌딩|35.87058865|128.5892245
태왕빌딩|35.87074615|128.5901891
태평주유소|35.87558725|128.5909117
파일론빌딩|35.86269852|128.6026303
패션주얼리전문타운|35.87177748|128.5966971
상도빌딩|35.87379869|128.5998574
서남빌딩|35.87026873|128.5809058
서문로119안전센터|35.87157637|128.5899848
서문시장 1지구|35.86939323|128.579824
서문시장 5지구|35.86809048|128.5784315
신남역(청라언덕역)(2호선)|35.86490684|128.5824697
서문지구대|35.87135367|128.5839258
계명대학교 동산병원|35.87017966|128.5825214
선교사 문화관광지(사택지)|35.86660785|128.5849568
선모빌딩|35.86037619|128.6037981
섬유회관|35.87032237|128.5842735
성내1동 주민센터|35.86924714|128.5980291
성내2동 행정복지센터|35.86838367|128.5903861
성내3동 행정복지센터|35.87259209|128.5857289
성명여자중학교|35.86965532|128.5837421
소석문화센터|35.86357944|128.6030876
수평빌딩(MS저축은행)|35.87015516|128.6038828
시민빌딩|35.87077887|128.579791
신남치안센터|35.85738851|128.5809666
신명고등학교|35.86965532|128.5837421
신용보증기금 대구지점|35.87195946|128.5994567
신한빌딩|35.86531711|128.5962721
씨네시티한일빌딩|35.87049514|128.5953808
ABL대구타워|35.86594946|128.5886918
약령시한의약박물관|35.86853023|128.5899179
약령시한의약박물관 관광안내소|35.8681384|128.589975
역전치안센터|35.87523416|128.5930907
동인동 행정복지센터|35.86791133|128.6091367
동인치안센터|35.87061158|128.6045285
동화빌딩(MS재건병원)|35.87188056|128.6048935
드림저축은행|35.87023078|128.6013918
로얄프레지던트 빌딩|35.8707465|128.5937659
메리츠화재 대구사옥|35.87100498|128.5920846
메트로센터상가(B2)|35.86442069|128.5933403
메트로프라자|35.86446924|128.5980972
명덕역(1호선)|35.8579883|128.5911518
몰디브코리아|35.86800411|128.5960597
미도빌딩|35.87068045|128.5943634
미르치과병원|35.86489322|128.600094
미주빌딩|35.87838379|128.5814179
공평빌딩|35.86799747|128.5981525
반월 메디컬센터 빌딩|35.865082|128.5927934
반월타워|35.86459179|128.5989352
번개시장|35.87521676|128.5974539
보람빌딩|35.85792674|128.5906996
봉산문화회관|35.86339742|128.5965568
㈜태산이앤엘 감영셀프주유소|35.875506|128.5917194
분홍빛으로 병원|35.8671813|128.6033993
삼덕119안전센터|35.86718777|128.5996746
삼덕동 행정복지센터|35.86552382|128.6089412
동덕지구대|35.86808032|128.6060263
삼성빌딩|35.86572995|128.6002393
삼성생명빌딩(덕산지점)|35.86631676|128.5927981
삼영빌딩|35.8654827|128.5954984
삼희빌딩|35.86368171|128.5988784
대구종로초등학교|35.87249623|128.5897066
대구초등학교|35.8640369|128.5953696
대백프라자|35.85571524|128.6063973
대봉1동 주민센터|35.86154491|128.6043818
대봉2동 주민센터|35.85876069|128.5993685
대봉치안센터|35.8603136|128.600519
대성빌딩|35.85759705|128.5807134
미래에셋증권(대성빌딩)|35.86466939|128.5960236
대명주유소|35.85822521|128.5794226
대신119안전센터|35.86890863|128.580774
대신동 주민센터|35.86557684|128.5763426
으뜸병원|35.87006531|128.5893568
대신지하상가|35.8705234|128.5810535
서문치안센터|35.86959766|128.5793617
대우빌딩|35.87470777|128.5952684
대한내과|35.85989636|128.591581
한화생명빌딩|35.86936059|128.6005768
대한적십자사 경북지사|35.86487855|128.58835
대한적십자사혈액원|35.87512933|128.5920223
대현프리몰|35.87083862|128.5951962
더락 멀티플렉스|35.87019011|128.5969067
동산빌딩|35.8659423|128.5827787
동산상가|35.86894887|128.5817156
동성로 타워빌딩|35.86656986|128.5944814
동성프라자건물|35.86938624|128.5950871
동아백화점 본점|35.87261357|128.5968936
동아백화점 쇼핑점|35.86632147|128.5918504
동양금융센터|35.86538292|128.592087
대구계성초등학교|35.86607562|128.5815807
대구광역시 중구청|35.86932522|128.6061572
대구광역시 청사|35.87154733|128.60122
대구광역시립중앙도서관|35.86844014|128.6017503
대구콘서트하우스|35.8760646|128.5936973
대구근대역사관|35.87179591|128.5911603
대구남산4동우체국|35.86377379|128.5820209
대구남산동우체국|35.85734341|128.590192
대구남산초등학교|35.86324744|128.5827598
대구달성동우체국|35.87664454|128.5783277
대구대봉동우체국|35.85860065|128.601647
대성에너지㈜남산동사옥|35.85785155|128.580266
대구동덕초등학교|35.86473435|128.6046499
대구동부교육지원청|35.86408949|128.5911771
대구동인동우체국|35.86968078|128.603556
대구동인초등학교|35.86808366|128.6095066
대구명덕초등학교|35.85753902|128.589027
대구삼덕동우체국|35.8660409|128.6096203
대구삼덕초등학교|35.86356446|128.6078431
대구수창초등학교|35.87424935|128.583444
대구시청 작은도서관|35.87158732|128.6004829
대구시티센터|35.87094134|128.5981079
대구역전우체국|35.87484668|128.5976433
대구우체국|35.87143012|128.5918219
대구은행 북성로지점|35.87401351|128.5874227
대구은행 중앙로지점|35.87121512|128.5937805
대구제일중학교|35.86154603|128.5970936
성신직업전문학교|35.86921438|128.5901438
계성빌딩|35.86845257|128.5818337
계성중학교|35.86793508|128.5802492
곽병원|35.87083012|128.5886768
교동시장 공중화장실|35.87286661|128.5969948
교보생명 동성로사옥|35.87059708|128.5948168
교원빌딩|35.86567687|128.5946138
동인느티나무도서관|35.87131912|128.6072027
국민은행 남산동지점|35.86165054|128.5922695
국민은행 대구지점|35.86887363|128.593412
국제빌딩|35.86842904|128.5958121
국채보상운동기념공원|35.86833404|128.6034536
국채보상운동기념관|35.86833404|128.6034536
금복개발 ㈜덕산지점|35.86579667|128.5940832
금복개발 ㈜삼덕지점|35.86344252|128.6034442
남문치안센터|35.8586919|128.5885909
대구중부소방서(남산119안전센터)|35.86257958|128.5752468
남산1동 주민센터|35.8593522|128.5904366
남산2동 주민센터|35.86408839|128.5895749
남산3동 행정복지센터|35.85991692|128.5855579
남산4동 행정복지센터|35.85822865|128.5805741
남산병원|35.86148489|128.58191
남산지구대|35.86606266|128.5876628
달성공원|35.87339884|128.5759201
달성빌딩|35.87334425|128.5806224
대구가톨릭대학교|35.86133303|128.5875131
대구경북여자고등학교|35.85842696|128.5922019
구.대구경북지방 병무청|35.87132335|128.5922606
경북대학 사범대학 부설중학교|35.86253967|128.6006179
경북대학교 동인캠퍼스(의과대)|35.8678394|128.6040547
경북대학교 사범대학 부설고등학교|35.86253967|128.6006179
경북대학교 치과대학|35.864227|128.6016704
경북대학교 치과병원|35.86389445|128.6013992
경북대학교사범대학 부설초등학교|35.86358293|128.5980661
경북대학병원|35.8662355|128.6043147
경상감영공원|35.87267548|128.5916854
청소년문화의집|35.8655137|128.5486315
이현119안전센터|35.869086|128.544157
서부소방서|35.881886|128.554391
서부수도사업소|35.8651265|128.5487479
한국염색기술연구소|35.88198993|128.5441204
한국섬유개발연구원|35.86820659|128.5460932
대구의료원|35.859602|128.5385415
한국전력 서대구지점|35.869863|128.570567
내당119안전센터|35.859439|128.5552904
서구보건소|35.87232184|128.5592204
공단역|35.89180916|128.5536575
원대역|35.887713|128.5743934
북구청역|35.88398239|128.5813653
내당4동 행정복지센터|35.860745|128.5514497
서대구우체국|35.866826|128.5551885
비원건강증진센터|35.8868957|128.5586343
비원도서관|35.88609089|128.5692882
원고개도서관|35.88187546|128.5707951
비산6동 행정복지센터|35.876308|128.5690951
비산7동 행정복지센터|35.88795717|128.553556
평리1동 행정복지센터|35.87559726|128.563298
평리2동 행정복지센터|35.871241|128.563688
평리3동 행정복지센터|35.875923|128.561311
서구청|35.87232184|128.5592204
평리4동 행정복지센터|35.867358|128.5567977
평리5동 행정복지센터|35.873789|128.548766
평리6동 행정복지센터|35.87519337|128.548275
원대동 행정복지센터|35.886816|128.5743962
상중이동 행정복지센터|35.86697716|128.5461136
서구종합사회복지관|35.861036|128.563348
서구장애인재활센터|35.86427185|128.5704798
서구지역자활센터|35.863442|128.569979
서구노인복지회관|35.875509|128.564088
서구청소년수련관|35.873635|128.5454766
서구제일사회복지관|35.885747|128.578869
평산지구대|35.873348|128.5714816
이현지구대|35.869035|128.543968
대구서부경찰서|35.87182807|128.5584532
서도지구대|35.87099967|128.559526
서문우체국|35.867967|128.57714
비산우체국|35.87629697|128.570981
비산7동우체국|35.888393|128.560675
비산1동 행정복지센터|35.881157|128.5689696
비산119안전센터|35.880452|128.572044
서구 구민건강증진센터|35.88016031|128.572445
금호강 하천변 화장실|35.877086|128.662044
금호강 하천변 화장실|35.874765|128.664395
불로천 화장실|35.908637|128.646165
동화천 화장실|35.946469|128.637096
레일카페 화장실|35.86259146|128.737239
대한노인회 동구지회|35.878391|128.675223
DTC섬유박물관(대구경제자유구역청)|35.91910021|128.640296
신천도서관|35.871472|128.617757
대구선 동촌공원|35.876033|128.687252
대구선 반야월공원(역사도서관)|35.872504|128.724961
상리공원|35.86279245|128.5331595
내당역|35.88050285|128.5682567
원고개시장|35.880524|128.5682567
두류1번가|35.8580794|128.5571213
구민운동장|35.873625|128.542871
달서천복개도로 남편|35.884405|128.566229
감삼테니스장|35.858654|128.5521819
서부도서관|35.87245023|128.5577302
내당1동 행정복지센터|35.860662|128.5606921
내당2.3동 행정복지센터|35.867271|128.574556
내당4동 행정복지센터|35.858953|128.5516436
노인복지관|35.858953|128.5516436
비산2.3동 행정복지센터|35.8758308|128.5747396
비산4동 행정복지센터|35.86975414|128.574301
비산5동 행정복지센터|35.886357|128.569663
연생태관화장실|35.864218|128.737165
연갤러리화장실|35.869001|128.743566
코스트코|35.876809|128.72994
㈜미도힐즈|35.8865925|128.652377
㈜오케이에너지|35.878425|128.708414
금호강 하천변 화장실|35.894589|128.633744
대구반야월초등학교|35.86827367|128.7107622
대구숙천초등학교|35.8769766|128.7533069
반야월종합시장|35.8724248|128.7024201
신기지하철역|35.86827367|128.7107622
안심1동주민센터|35.8703905|128.7021131
신기중학교|35.86816599|128.7023592
안심근린공원|35.866808|128.702901
팔공노인복지회관|35.8874423|128.6309954
소망어린이공원|35.870391|128.702113
대구교육연수원|35.8724248|128.7024201
대원석유㈜ 대신주유소|35.87019641|128.7297797
이마트 반야월점|35.8708661|128.7274592
불로전통시장|35.91040163|128.6419419
불로봉무동우체국|35.92013993|128.6385937
금호강주유소|35.9002891|128.62974
안심중학교|35.90114352|128.6309584
현대우성오일뱅크|35.86577692|128.7114392
안심3,4동주민센터|35.87031838|128.7109479
도동측백수림|35.99454187|128.6108128
동원주유소|35.91925526|128.6473981
대한주유소|35.9283041|128.6411375
불로봉무동주민센터|35.9103078|128.6392874
봉무공원1|35.92017148|128.649974
봉무공원2|35.92017148|128.649974
봉무공원3|35.92017148|128.649974
봉무공원4|35.92017148|128.649974
봉무공원주차장|35.93576399|128.6442392
해안초등학교 본관|35.93576399|128.6442392
불로중학교|35.89617884|128.6830241
대구불로초등학교|35.89828|128.634408
불로치안센터|35.897486|128.6335014
해안주유소|35.9131734|128.6407843
수성치안센터|35.85288281|128.618682
파티마여성병원|35.842848|128.698391
연호주유소|35.846558|128.671166
수성셀프주유소|35.842887|128.678626
그린주유소|35.845182|128.675543
연호게이트볼장|35.847504|128.672134
대구매호초등학교|35.841593|128.7121173
매호중학교|35.843921|128.702296
노변주유소|35.84158466|128.7004299
대구자연과학고|35.83578109|128.7007108
노변중학교|35.83808768|128.694362
청림초등학교|35.83563518|128.7033769
청곡종합사회복지관|35.83759349|128.6984653
대구스타디움(주경기장)|35.82976978|128.690163
대구스타디움(보조경기장)|35.82976978|128.690163
대구스타디움(제1주차장)|35.82976978|128.690163
대구스타디움(제2주차장)|35.82976978|128.690163
대구스타디움(종합안내소)|35.82976978|128.690163
대구스타디움(야외공연장|35.82976978|128.690163
대구스타디움(수변건물)|35.82976978|128.690163
대구스타디움 간이화장실(1)|35.82976978|128.690163
대구스타디움 간이화장실(2)|35.82976978|128.690163
대구스타디움 간이화장실(3)|35.82976978|128.690163
화남주유소|35.843376|128.6919874
노변초등학교|35.83774591|128.6976275
고산초등학교|35.84395474|128.693198
고산중학교|35.845282|128.6986691
대림주유소|35.820131|128.634961
수성지에스주유소|35.82603577|128.6264336
신화명품주유소|35.83671506|128.6243573
지산중학교|35.824656|128.6285991
용지초등학교|35.822008|128.632722
지산목련시장|35.820333|128.632447
아주빌딩|35.82107648|128.6390996
수성고등학교|35.82127606|128.6254677
동아스포츠센터|35.82601392|128.6293531
신세계주유소|35.8173681|128.6134742
효성아동병원|35.843253|128.612851
NH농협은행|35.846839|128.612367
황금캐슬주유소|35.838876|128.62668
한일주유소|35.839095|128.6255685
지산주유소|35.826528|128.6368798
지봉초등학교|35.82546519|128.6408054
복음선교관|35.8319496|128.623989
문화주유소|35.82629098|128.6442084
능인고등학교|35.83210901|128.6325585
능인중학교|35.83210901|128.6325585
지산초등학교|35.82695807|128.6301691
한패밀리병원|35.831329|128.6239644
대구광역시교통연수원|35.83047264|128.630497
대구여자고등학교|35.85658816|128.6298635
효산병원|35.85219614|128.624677
여성메디파크병원|35.854695|128.62474
경상제일주유소|35.866995|128.636059
범어초등학교|35.860662|128.6327724
새범어종합시장|35.86627372|128.6351589
율촌빌딩|35.861664|128.6287846
동일빌딩|35.859257|128.6365777
교직원공제회관|35.860052|128.627182
성광빌딩|35.86193168|128.6278873
대구상조빌딩|35.85919555|128.6318918
상원빌딩|35.859762|128.627359
동대구농협|35.8592704|128.634668
대구문화방송M.B.C|35.86605026|128.6287908
기업은행|35.858492|128.627885
수성주유소|35.85922817|128.6316135
송원교육문화재단송원학원|35.859218|128.638636
미니주유소|35.887487|128.647908
동촌지하철역|35.88596148|128.6504598
홈플러스 동촌점|35.886156|128.65567
지성365할인주유소|35.884319|128.657984
열경요양병원|35.88444425|128.6564226
㈜부강에너지 착한주유소|35.88721022|128.6511324
동촌우체국|35.885806|128.651282
동촌동주민센터|35.886593|128.652382
송정오일뱅크|35.8723081|128.736347
수성유원지(지산하수처리장)|35.82937671|128.6205781
관계지어린이공원|35.81456|128.639955
중앙어린이공원|35.818095|128.639034
수성유원지(보트장쪽)|35.826518|128.618356
수성유원지(삼풍아파트 동편)|35.824656|128.614666
수성유원지(구 충혼탑앞)|35.825918|128.61611
고산3동주민센터|35.84413609|128.706578
화랑공원|35.872189|128.6390614
지산어린이공원|35.835125|128.627453
범물어린이공원|35.817333|128.644512
성명치안센터 화장실|35.838736|128.564778
상수도 사업 본부 화장실|35.85445689|128.5961118
대명11동사무소화장실|35.836185|128.560564
대덕문화전당|35.8431565|128.5875407
남구보건소|35.8539014|128.5915225
대구교육정보원|35.85183327|128.5865488
달성교육청|35.84119472|128.562198
남부도서관|35.8320699|128.5807583
봉덕동우체국|35.84179506|128.6055001
봉덕3동우체국|35.838516|128.5948419
봉천지구대|35.8460903|128.5988618
남구청사(별관)|35.84552704|128.5978365
남구청  본관 화장실|35.84552704|128.597815
상수도 중남부 사업소 화장실|35.854502|128.598609
신천3동주민센터|35.87541517|128.6237458
동대구대성빌딩|35.8750542|128.6238218
바로본병원|35.8684136|128.6151819
청구고등학교|35.86865579|128.6205717
청구중학교|35.86865579|128.6205717
㈜삼양사|35.8746811|128.6248621
천일주유소|35.8754396|128.6805517
벼룩시장|35.87350785|128.6248207
대구벤처센타|35.872829|128.6248342
조일공업고등학교|35.88208666|128.6944543
용계치안센터|35.8758176|128.6814593
동진주유소|35.87753115|128.6782404
동대구고속주유소|35.87691901|128.6784404
정동고등학교|35.87674915|128.6928658
신천치안센터|35.8699333|128.6148406
동대구역치안센터|35.8773368|128.6263248
동부소방서|35.87598585|128.6252252
신천지하철역|35.87470538|128.6170102
신천동우체국|35.8686857|128.619076
공산우체국|35.882895|128.6630981
공산중학교|35.95506586|128.6906832
대구공산초등학교|35.95647964|128.6906247
국제주유소|35.93241037|128.6435437
대구영신초등학교|35.91925526|128.6473981
영신고등학교|35.91925526|128.6473981
영신중학교|35.91925526|128.6473981
범어3동주민센터|35.86609842|128.6180238
케이블카 정상화장실|35.82408217|128.5793837
구 제4약수터 화장실|35.827025|128.589561
고산골 공연장지구내|35.827025|128.589561
대명초등a|35.83886877|128.5688886
대명초등b|35.83886877|128.5688886
봉덕초등학교|35.8396828|128.5968428
봉덕초 강당|35.8396828|128.5968428
영선 초등학교|35.85290101|128.596066
효명초등학교 본관|35.83465202|128.6010844
효명초등학교 강당|35.83465202|128.6010844
대봉초등학교 생활관|35.85166281|128.6048091
대봉초등학교 후관|35.85166281|128.6048091
대봉초등학교 본관|35.85166281|128.6048091
대구중학교 A동|35.85007747|128.6036791
대구중학교 B동|35.85007747|128.6036791
대구교대본부|35.85143184|128.5877407
가무장 지구내 화장실|35.841478|128.597182
모험시설 지구내 화장실|35.827025|128.589561
㈜엑스코|35.907216|128.612947
대구오페라하우스|35.8834639|128.5922301
칠성고등학교|35.88060752|128.5912639
㈜스펙트럼시티|35.88522649|128.5897883
신세계이마트 칠성점|35.88522649|128.5897883
지하철 칠성역|35.878403|128.592868
현운빌딩|35.87840228|128.595011
리치프라자|35.8857914|128.5860978
삼성시장|35.87781729|128.6034808
원시장|35.87542332|128.603251
경명시장|35.8757382|128.6040838
수성시장역|35.85427003|128.6160194
수성구민운동장역|35.85244278|128.6253511
어린이회관역|35.84508204|128.6248334
황금역|35.83918861|128.6242971
수성못역|35.83141926|128.6236075
지산역|35.82512619|128.6315524
에덴공원|35.821715|128.632647
화성공원|35.825532|128.629445
시민공원|35.863372|128.63087
용두골공중화장실|35.809353|128.607743
지산지구대|35.823194|128.637184
용학도서관|35.821253|128.646128
홈플러스대구스타디움 고객화장실|35.83165878|128.687326
영광메디칼빌딩|35.85948674|128.6135601
두산문화센터|35.839242|128.6181617
홈플러스수성점|35.83791279|128.6226818
대구미술관(전시동)|35.82702838|128.674339
수성구청소년수련원|35.79910608|128.672302
수성패밀리파크|35.87035122|128.673018
무열로119안전센터|35.87073513|128.648153
범어도서관|35.859348|128.6306649
만촌지구대|35.86828155|128.6488699
만촌1동치안센터|35.8750443|128.6464511
신천4동주민센터|35.8717286|128.629306
효신시장|35.8744512|128.6326144
신대한LPG제1충전소|35.87604816|128.6219491
동부주유소|35.8727469|128.6346617
동신초등학교|35.869074|128.628991
대구효신초등학교|35.8726276|128.6321105
동보한방의원|35.874035|128.6175126
송라시장|35.87448676|128.6153095
스마트 벤처창업 학교|35.8723182|128.624827
대구상공회의소|35.8710897|128.624959
대구경북디자인센타|35.8714021|128.62487
㈜영남일보|35.8696738|128.6249367
대성산업㈜하이웨이주유소|35.8676734|128.6236282
신천3치안센터|35.8723182|128.624827
대구신천초등학교|35.87165608|128.6210093
동대구역전시장|35.87430058|128.6205261
극동주유소|35.8751122|128.6213294
동대구로체육공원 1|35.87581825|128.626422
동대구로체육공원 2|35.8742273|128.6261575
LG텔레콤 대구교환국|35.8697765|128.62653
㈜아모레퍼시픽|35.8673211|128.6272603
MH컨벤션웨딩|35.867868|128.6272081
동대구세무서|35.8673843|128.629075
KT&G 동대구지점|35.86800482|128.628734
신천1,2동주민센터|35.8699333|128.6148406
문화주유소|35.8690741|128.6289905
동대구역지하철역|35.86978645|128.6265246
신천4동우체국|35.8761387|128.628287
동부여성문화회관|35.89041434|128.6223307
신암근린공원|35.88300524|128.6192562
동부초등학교|35.88802582|128.6198324
신암주유소|35.88554636|128.6155319
대구기상대|35.8855468|128.6189625
신암1치안센터|35.8857464|128.6165181
신암5동주민센터|35.8897559|128.6330629
신암1동주민센터|35.8842862|128.6163506
신암중학교|35.8905698|128.6340584
한국건강관리협회 대구시지부|35.868786|128.6235479
관광고등학교|35.8900476|128.6323697
제일안과병원|35.881828|128.6147578
대구공업고등학교|35.88321428|128.6141712
한국장학재단|35.8811634|128.6129585
아양중학교|35.88824692|128.6349116
신암로주유소|35.88107825|128.6121835
신암선열공원|35.890622|128.63113
오성중학교|35.85370025|128.6447211
영남공업고등학교|35.848429|128.6469277
소선여자중학교|35.85294938|128.6497973
SK제일주유소|35.82064746|128.6409541
대구범일중학교|35.821135|128.644777
범물초등학교|35.82148442|128.6448572
복명초등학교|35.817658|128.647227
동아백화점수성점|35.82107368|128.6403609
범물종합복지관|35.81869686|128.6470524
범물중학교|35.81501768|128.6398557
대구범일초등학교|35.81631492|128.6388291
수성대학교|35.85437065|128.6468293
청구리빙월드|35.820823|128.639549
에스제이주유소|35.855648|128.6514347
대구혜화여자고등학교|35.8498571|128.6476657
대청초등학교|35.85090774|128.6501668
만촌종합시장|35.854856|128.651547
정화여자고등학교|35.85090566|128.6405813
대공원시장|35.857689|128.635182
부광빌딩|35.858424|128.636152
대아빌딩|35.858444|128.639852
골드타워|35.858463|128.6344841
KB손해보험|35.8596707|128.6248461
상동게이트볼장|35.831043|128.607401
동천초등학교|35.86584544|128.6252838
청운신용협동조합|35.86705306|128.618645
로터리시장|35.8627502|128.625075
삼성화재㈜범어사옥|35.866192|128.626263
범어빌딩|35.86229872|128.6260704
KT범어사옥|35.863925|128.626257
건설회관|35.866791|128.6249622
정암빌딩|35.860954|128.6259999
법무빌딩|35.861856|128.626168
참저축은행|35.865627|128.626249
새마을금고중앙회 대구지역본부|35.86677252|128.625262
가든주유소|35.85454165|128.639043
신매공원|35.83290845|128.7090818
매호공원|35.844658|128.703988
도시철도3호선 구암역|35.92566312|128.5503266
동림빌딩|35.9437107|128.5646168
강북경찰서|35.94345181|128.5653064
북대구우체국|35.94153605|128.5657163
함지근린공원|35.942288|128.568728
강북초등학교|35.9408343|128.566782
운암고등학교|35.93884743|128.563704
강북중학교|35.93870274|128.5648981
동평중학교|35.9371652|128.5635118
구암동주민센터|35.9389234|128.5660435
대명치안센터|35.84422279|128.5699016
대덕쉼터|35.829015|128.589131
앞산공원 사무소|35.829015|128.589131
대성사 앞 화장실|35.844698|128.590344
은적사 앞 화장실|35.829015|128.589131
유기장 뒤 화장실|35.829015|128.589131
고산골 사무실 옆 화장실|35.836592|128.582928
고산골 사무실내|35.836592|128.582928
명동공원 화장실|35.85315814|128.5776402
대명제2공원|35.84544745|128.5834288
큰골 주차장 화장실|35.84307572|128.58861
충혼탑 화장실|35.832381|128.583421
덕천치안센터|35.833215|128.600606
낙동강승전기념관|35.82716989|128.5887886
남구 종합 사회 복지관|35.849241|128.5919719
안지랑골 사무실앞 화장실|35.842279|128.584543
안일사 앞 화장실|35.84395033|128.5876181
상동방천주유소|35.83257155|128.6070715
강남병원|35.883069|128.6630316
케이에이㈜직영|35.8828949|128.6630981
2.28기념 중앙공원|35.8692142|128.5971828
반월당역(2호선)|35.86442069|128.5933403
갑을빌딩|35.8704103|128.5869856
경구중학교|35.85769247|128.5834111
경대병원역(2호선)|35.86319903|128.602801
경북공업고등학교|35.85769247|128.5834111
케이케이(주) 유성주유소|35.85560652|128.6041376
케이케이(주) 중앙주유소|35.86954045|128.6006658
운암중학교|35.93284009|128.565301
대구 광명학교 기숙사|35.85594572|128.5750742
천주성삼병원|35.840265|128.705751
대구은행시지점|35.840174|128.706195
이마트시지점|35.8397742|128.70404
아레나스포츠센터|35.840366|128.705246
덕원중학교|35.82497363|128.70638
덕원고등학교|35.82497363|128.70638
반야월지하철역|35.86620949|128.7132065
반야월주유소|35.8723123|128.7105107
대구동호초등학교|35.872312|128.710511
SK동호주유소|35.86714446|128.7224332
동호동우체국|35.86714446|128.7224332
행운주유소|35.86597|128.724028
대구동촌초등학교|35.882078|128.658931
대구시농업기술센터|35.88008451|128.6602502
동촌중학교|35.882418|128.6596605
방촌시장|35.881329|128.664466
대구방촌초등학교|35.88065514|128.6630347
천광주유소|35.8768668|128.662867
방촌동주민센터|35.876867|128.662867
국가대표 제2주유소|35.8776654|128.664889
대구용호초등학교|35.87735702|128.6723772
스타하우스|35.87813938|128.6739461
방촌주유소|35.8780635|128.6744471
해안지하철역|35.88382759|128.6590925
해안동주민센터|35.8820761|128.6716797
방촌지하철역|35.87996746|128.6699917
방촌치안센터|35.879403|128.6716853
세경방촌주유소|35.87958564|128.6717863
현대상가시장|35.88278731|128.6657517
대구방짜유기박물관|35.96545433|128.7013641
안심우체국|35.96545433|128.7013641
대구도시가스(주)동호CNG충전소|35.86471972|128.7142948
남대구 세무서 화장실|35.83838008|128.5718051
대명5동 치안센터 화장실|35.84307214|128.5831469
남부경찰서 화장실|35.84307214|128.5831469
동대명지구대 화장실|35.8539014|128.5915225
대명동 우체국화장실|35.847439|128.5797715
명동 치안센터|35.853151|128.5776402
서대명지구대|35.83720084|128.579507
봉덕2동사무소|35.843825|128.601106
봉덕3동사무소|35.8416973|128.5982576
이천동사무소|35.853661|128.599451
대명1동사무소|35.84049436|128.5774502
대명2동사무소|35.855299|128.5862413
대명3동사무소|35.85229964|128.5790578
대명5동사무소|35.8432344|128.587884
대명4동사무소|35.84849716|128.5724342
대명9동사무소|35.83509159|128.5660918
대명6동사무소|35.83509159|128.566064
대명10동사무소화장실|35.84002858|128.568929
신서근린공원|35.86671541|128.7277113
신암3동주민센터|35.8795724|128.6231473
궁전라벤더|35.88170669|128.6198657
대구보호관찰소|35.88832651|128.6375259
e편한주유소|35.88593235|128.6283032
대구아양초등학교|35.88746269|128.6374328
대구신성초등학교|35.89012297|128.6289427
동흥주유소|35.87749616|128.607549
대구축산업협동조합|35.891989|128.6222876
신암우체국|35.8838308|128.6254655
관문시장(1)|35.83553626|128.5590622
관문시장(2)|35.83553626|128.5590764
구 봉덕시장 (1)|35.84550213|128.603494
대덕시장|35.85151551|128.5827658
반월당역(1호선)|35.86442069|128.5933403
달성공원주유소|35.87542073|128.5816412
안심지하철역|35.87174849|128.7366246
구암어린이공원|35.926424|128.559251
도시철도3호선 칠곡운암역|35.93147674|128.5545486
동도초등학교|35.8570927|128.624038
에이스빌딩|35.854144|128.623489
범어궁도장|35.84880032|128.6308065
삼희빌딩|35.85888024|128.623796
삼성증권|35.858344|128.6275195
현대증권빌딩|35.8582798|128.6270819
구암근린공원|35.928436|128.556816
구암초등학교|35.92814416|128.5577585
구암중학교|35.92757545|128.5571588
진달래어린이공원|35.930707|128.558826
대구시시지노인병원|35.82889639|128.7103635
근토빌딩|35.839481|128.704858
M타워|35.839658|128.707689
배수지어린이공원|35.816369|128.648572
카페에셀|35.83487862|128.5948982
APLO빌딩|35.8416516|128.5835752
앞산케이블카화장실|35.82236049|128.5792832
전인병원|35.8433237|128.5694678
푸른병원|35.85652801|128.5926952
굿모닝 병원|35.85302475|128.5740689
오연합정형외과|35.84076271|128.5819677
힘센병원|35.8451625|128.5992954
성심병원|35.83758041|128.5590358
문성병원|35.84877605|128.5704031
영남대학의료원|35.84716173|128.5865487
영남대학의료원(호흡기 전문질환)|35.84716173|128.5865487
대구가톨릭병원 본관|35.8441899|128.5657926
대구가톨릭병원(통합진료센터)|35.8441899|128.5657926
대구가톨릭병원(장례식장)|35.8441899|128.5657926
성명상가|35.84709582|128.568785
광덕시장|35.83719182|128.582442
남부시장|35.84140207|128.5769292
남산시장|35.838204|128.578841
성당시장(1)|35.85016987|128.572972
성당시장(2)|35.85016987|128.572972
봉덕시장 (돼지수육) 화장실|35.8451394|128.6033937
봉덕시장 주차장 화장실|35.8451394|128.6033937
대명시장(2)|35.848138|128.569278
대명시장(1)|35.85840906|128.5771642
대명중앙시장|35.836871|128.5677059
불교문화원|35.85619572|128.589772
한국불교대학별관|35.844381|128.591079
대봉제일교회|35.84888987|128.6040758
순복음대구교회|35.84148737|128.5612903
대우자동차판매|35.8403446|128.5794761
외환은행 봉덕점|35.846142|128.5908766
동문초등학교|35.874856|128.6524257
만촌시장|35.8716769|128.6462441
만촌자전거경기장|35.87290303|128.6582535
만촌인라인롤러경기장|35.87290303|128.6582535
동원빌딩|35.87484762|128.6426515
㈜일선 이주빌딩|35.871483|128.634624
지노메디여성병원|35.870843|128.633984
차량등록사업소|35.866642|128.6397299
수성도서관|35.872189|128.6390614
청기와주유소|35.877867|128.649464
이마트만촌점|35.8712065|128.6371469
담티주유소|35.8544295|128.6555269
샛별주유소|35.865078|128.6490965
만촌초등학교|35.86669044|128.6479211
동원초등학교|35.86486838|128.639886
청구시장|35.865008|128.6442389
유성빌딩|35.85786|128.648973
수성메트로병원|35.859404|128.646026
장애인재활센터|35.86597716|128.649215
두산주유소|35.826931|128.626537
불교한방병원|35.823991|128.624241
㈜대구방송TBC|35.832361|128.6224611
동대구가스충전소|35.86707606|128.630495
메트로팔레스주유소|35.868167|128.631418
흥구석유(주)만촌주유소|35.87566879|128.6442806
무열로주유소|35.874074|128.646166
경북광유㈜중앙2주유소|35.874127|128.641637
대구동부중학교|35.872527|128.6442065
중앙초등학교|35.87001293|128.6403507
동문고등학교|35.87730272|128.6510331
동원중학교|35.8758568|128.6510695
경북여자 정보고|35.85494018|128.5887493
대구여상 별관|35.84901891|128.5832076
대구여상 본관|35.84901891|128.5832076
계명대학교 전문관|35.85552235|128.5793165
계명대 ITC|35.85552235|128.5793165
계명대학교 도서관|35.85552235|128.5793165
대구대학교 재활관|35.855917|128.5750742
대구대학교 재활대|35.855917|128.5750742
대구광명 학교|35.85594572|128.5750742
매동초등학교|35.84521248|128.709212
대한주유소|35.83583487|128.7189672
보람365일 할인주유소|35.837149|128.716868
부강주유소|35.837219|128.716617
대경주유소|35.839973|128.7089087
동신주유소|35.83983423|128.6183915
큰믿음주유소|35.826083|128.6259695
협성중학교|35.83809438|128.598108
경북예고 무용관동|35.8545218|128.5885255
경북예고 대동관동|35.8545218|128.5885255
경북예고 미술관동|35.85102|128.5854432
범어2동주민센터|35.86009063|128.631296
대명성당|35.84267206|128.5845114
통일회관|35.84267206|128.5845114
대구육상진흥센터|35.82827728|128.6791235
시민생활스포츠센터|35.82827728|128.6791235
창성빌딩|35.83978157|128.707386
한국광유㈜사월주유소|35.836389|128.716791
신매초등학교|35.83634517|128.709212
사월초등학교|35.83405266|128.7150423
시지중학교|35.835549|128.708953
시지고등학교|35.830179|128.7074241
욱수초등학교|35.83137816|128.707699
고산건강생활지원센터|35.83698958|128.712812
수성국민체육센터|35.84831168|128.6304246
무학어린이공원|35.825179|128.639852
지산근린공원|35.82093452|128.6376141
범물역|35.82067898|128.6402289
파동어린이도서관(건물2층)|35.812896|128.6171396
용지역|35.81838205|128.6468777
고산도서관|35.83790388|128.7106785
대구청과시장|35.87702934|128.6039645
무태조야동 주민센터|35.9213327|128.5970475
성북초등학교|35.92641014|128.5942114
칠곡시장 공중화장실|35.942305|128.551625
교동초등학교|35.9447886|128.549436
교동중학교|35.94395188|128.5495491
현대오일뱅크㈜칠곡주유소|35.93855791|128.5499491
대구삼선병원|35.9356405|128.549232
칠곡카톨릭병원|35.9349066|128.5492967
동아백화점강북점본관|35.9330097|128.5490165
대천어린이공원|35.93916|128.55524
대천초등학교|35.93721038|128.554364
현대대왕오일뱅크|35.9506329|128.5533551
한국주유소|35.9518399|128.5531285
소원주유소|35.95275658|128.5535998
대구개인택시조합 제4충전소|35.9605768|128.552218
제형주유소|35.9534758|128.5546774
칠곡중학교|35.9481754|128.5507442
하마주유소|35.94940267|128.552005
읍내동주민센터|35.94581301|128.5505739
칠곡초등학교|35.94517034|128.5517715
구수산도서관|35.9387852|128.5524038
조야초등학교|35.9132267|128.5771206
능금시장|35.87714898|128.6019704
칠성시장|35.8763191|128.6052466
에쓰오일 산격주유소|35.8944365|128.5940427
GS칼텍스㈜선진주유소|35.8952095|128.5942889
연암근린공원|35.899124|128.60369
현대오일뱅크 ㈜동서변주유소|35.91419979|128.5995667
까치주유소|35.93062954|128.5995548
SK네트웍스㈜거산주유소|35.92897585|128.5984363
유니버시아드레포츠센터|35.9279702|128.5979559
서변중학교|35.926352|128.595661
서변근린공원|35.921302|128.595371
서변초등학교|35.92075558|128.5950281
경북대구한우협동조합|35.908104|128.6156959
산격중학교|35.90230162|128.6087063
산격2동주민센터|35.90173199|128.609253
북대구IC주유소|35.9022068|128.6063442
상수도시설관리사무소|35.90157466|128.6040398
SK네트웍스㈜신흥주유소|35.90260738|128.6006708
남강주택건물|35.9027042|128.6028595
호수에멱감으로|35.90390307|128.6024365
흥구석유㈜산격주유소|35.902386|128.5979762
챔피언주유소|35.90317944|128.5966822
산격종합사회복지관|35.9010957|128.5958916
산격1동주민센터|35.9003895|128.596892
Sk네트웍스㈜맘모스주유소|35.90217341|128.5958955
태왕주유소|35.9018623|128.5946089
북대구 LPG 충전소|35.901672|128.5940247
대산초등학교|35.89611402|128.5931912
동원빌딩|35.820547|128.6399999
구민운동장|35.850395|128.629875
대공원가스|35.85330989|128.6246692
동산초등학교|35.849159|128.6280729
상리공원|35.86279245|128.5331595
내당역|35.88050285|128.5682567
원고개시장|35.88050285|128.5682567
두류1번가|35.8580794|128.5571213
신서근린공원|35.86671541|128.7277113
신암4동주민센터|35.8850364|128.6293294
동대구역|35.87943775|128.6287185
동구청|35.88655942|128.6354741
동구청지하철역|35.88210557|128.6284773
신암2동주민센터|35.8799695|128.6127068
상수도동부사업소|35.880207|128.6140215
대구강동초등학교|35.86809919|128.7302389
강동중학교|35.8669617|128.7294744
강동고등학교|35.86595994|128.7296123
동흥주유소|35.87749616|128.607549
대구신성초등학교|35.89012297|128.6289427
대구아양초등학교|35.88746269|128.6374328
e편한주유소|35.88593235|128.6283032
대구보호관찰소|35.88832651|128.6375259
아양교지하철역|35.88746269|128.6374328
동대구초등학교|35.87969478|128.6209693
신암시장|35.88103194|128.6193958
궁전라벤더|35.88170669|128.6198657
신암3동주민센터|35.8795724|128.6231473
신암우체국|35.8838308|128.6254655
대구축산업협동조합|35.891989|128.6222876
KT 동대구지사|35.88422588|128.6268198
대구덕성초등학교|35.88210557|128.6284773
김광석길 공영주차장|35.85930118|128.606415
중앙로관광버스전용주차장|35.87389536|128.5949301
반월당클래시아 2차|35.86472841|128.5948698
약령시서문공영주차장|35.8677228|128.5904892
수성2.3가동주민센터|35.854744|128.619027
대구시교육청|35.85836923|128.6146193
메디컬스타빌딩|35.86544691|128.5827086
메디컬빌딩|35.863997|128.6005709
누네안과병원(밝은빛하이눈사옥)|35.86375138|128.6019265
국채보상운동기념공원 공영주차장|35.86833404|128.6034536
교동공영주차장|35.87372488|128.598395
LG U+ 황금사옥|35.841477|128.623653
한국방송광고공사|35.84148568|128.624794
북성로 공중화장실|35.87370397|128.5896908
대구 메디스퀘어 클래시아|35.86528491|128.5925957
늘열린성모병원|35.86210036|128.5995033
달성토성 커뮤니티센터|35.8730164|128.5797877
순종황제 어가길 쉼터|35.87383443|128.5853394
남산동커뮤니티센터|35.85983364|128.589675
에코한방웰빙체험관|35.86793848|128.5892823
향촌수제화센터|35.87285609|128.5918437
계산예가 공중화장실|35.86720633|128.5878706
센트럴시티 오피스텔|35.86982968|128.5877682
김광석길 공중화장실|35.86116116|128.6072136
김광석 스토리하우스|35.85901498|128.6056361
삼덕마루|35.86463999|128.6090451
수창공원|35.87543789|128.5844994
수창청춘맨숀|35.87539194|128.5838474
남산어린이공원|35.85825204|128.5805671
중구보건소 및 노인복지관|35.87790436|128.5833648
북성로 역사전통문화마을 기술예술융합소|35.8733028|128.5926444
㈜현대아웃렛|35.87073052|128.6265483
대구동부고등학교|35.87428988|128.7190714
동부경찰서|35.87431782|128.7206442
공산동주민센터|35.94023401|128.6442077
대구지묘초등학교|35.94284672|128.6389782
각산지하철역|35.8680027|128.724166
대구송정초등학교|35.87060736|128.7340267
동구보건소|35.88812099|128.651234
대구출입국관리사무소|35.88884432|128.6499925
불로고분공원 화장실|35.913875|128.644835
든든우리병원|35.88048334|128.6124811
㈜신세계동대구복합환승센터(터미널)|35.87793987|128.6291892
팔공산자연공원12 (파계지구야영장)|35.99089789|128.637144
아양루공원(주차장)|36.00225583|128.7028821
단산유적공원|35.917795|128.639492
송호지근린공원 화장실|35.88941338|128.7054895
신서중앙근린공원 화장실|35.88095084|128.7341237
동내향수근린공원 화장실|35.87783786|128.7372757
사복노을근린공원 화장실|35.87724873|128.749057
지저동 아양공원 화장실|35.892105|128.640055
나비생태관 화장실|35.93576399|128.6442392
㈜신세계동대구복합환승센터(백화점)|35.87793987|128.6291892
계명2주유소|35.87858036|128.7272825
성동시장|35.88381833|128.630272
동서시장|35.887254|128.633544
대구고용센터|35.865378|128.627462
대구대학교 미술부|35.85594572|128.5750742
삼광빌딩|35.835283|128.5562682
프라임빌딩|35.839621|128.564895
불교사회복지회|35.852648|128.5992856
대덕 복지회관|35.836162|128.5837978
보선빌딩|35.845723|128.5803265
신화빌딩|35.850811|128.5817822
동호빌딩|35.85370463|128.583532
현대자동차|35.838923|128.5779867
신광빌딩|35.844811|128.6020945
대덕빌딩|35.8397168|128.5665743
남산빌딩|35.851959|128.590251
카톨릭문화관|35.855911|128.5864176
우체국예금보험|35.850686|128.5909973
한국 농촌공사|35.856419|128.5744997
도로교통관리공단|35.82992103|128.5606697
대구YWCA|35.8384071|128.5800721
대구은행|35.8498695|128.5723987
성명초등 체육관 화장실|35.84515515|128.5708232
성명초등 후관 화장실|35.84515515|128.5708232
성명초등 본관 화장실|35.84515515|128.5708232
성명초등 합숙소 화장싱|35.84515515|128.5708232
경혜여자중학교 화장실|35.84318099|128.5641037
남명초 A동|35.8343643|128.5819868
남명초 B동|35.8343643|128.5819868
남덕초등학교 A동|35.83306406|128.5739489
남덕초등학교 B동|35.83306406|128.5739489
대명중학교 체육관|35.83308865|128.576747
대명중학교|35.83308865|128.576747
영남대학교의과대학|35.84716173|128.5865487
홈스파월드|35.833011|128.5961349
보훈회관|35.8449906|128.5915971
대현교회|35.84634093|128.5978927
봉덕교회|35.84277313|128.6037888
KT2사옥|35.83838008|128.5718051
KT&G화장실|35.83862957|128.571112
평강교회|35.83504525|128.5953687
한국불교대학관음사|35.844348|128.591042
삼성홈플러스|35.83869034|128.5698546
대구보명학교|35.85594572|128.5750742
대구영화학교교사동|35.85594572|128.5750742
대구영화학교 직업관|35.85594572|128.5750742
대구보건학교|35.85594572|128.5750742
경상공고 죽암1관 화장실|35.84521912|128.574198
경상공고 죽암2관 화장실|35.84521912|128.574198
경상공고 본관|35.84521912|128.574198
경상공고 교사동|35.84521912|128.574198
경일여중학교|35.83809438|128.598108
경일여고 본관|35.83809438|128.598108
경일여고 신관|35.83809438|128.598108
경복중학교|35.835461|128.597241
대덕초등학교 화장실A|35.83043784|128.5616758
대덕초등학교 화장실B|35.83043784|128.5616758
이천동 치안센터 화장실|35.846031|128.604939
대구교대 제2강의동 화장실|35.85143184|128.5877407
남도 초등학교 A동 화장실|35.84502719|128.581491
남도 초등학교B동 화장실|35.84502719|128.581491
대덕초등학교 화장실C|35.830417|128.5616758
경상중 체육관|35.85262023|128.585369
남대구 초등학교 화장실 A|35.853567|128.5864972
남대구 초등학교 화장실B|35.853567|128.5864972
경상중학교본관|35.85262023|128.585369
대구고 강당|35.8506302|128.5903105
대구고 본관|35.8506302|128.5903105
대구고 교사동|35.8506302|128.5903105
대구대학교 보건부|35.855905|128.5750742
대구대학교 본관|35.85594572|128.5750742
대구 덕희학교|35.85594572|128.5750742
㈜퍼시스대구센터|35.909001|128.6147685
㈜보고파워|35.909707|128.6160438
㈜동원약품|35.90888446|128.6166864
코스트코-코리아|35.906389|128.618136
현대오일뱅크(주)유통단지주유소|35.90579147|128.6180457
북대구초등학교|35.90328558|128.6095652
대불근린공원|35.914484|128.606954
Sk네트웍스㈜유통단지주유소|35.90055615|128.6152398
범어역|35.85901522|128.6244536
범어4동주민센터|35.858133|128.6412802
범어4동치안센터|35.854678|128.6388499
수성구청역|35.85874022|128.6359517
만촌1동우체국|35.86887976|128.646776
만촌1동주민센터|35.872923|128.6468897
만촌2동주민센터|35.859867|128.647232
만촌역|35.85880261|128.6453712
만촌3동주민센터|35.855526|128.650578
만촌119안전센터|35.855352|128.652115
수성1가우체국|35.860039|128.6108846
수성1가동주민센터|35.85512485|128.6103427
수성우체국|35.8593303|128.615878
대구과학고등학교|35.84468027|128.6254893
현대e병원|35.84661148|128.622834
범어1동주민센터|35.85553326|128.622066
범어지구대|35.8584875|128.6250937
대구지방고용노동청|35.85097657|128.6244888
수성구청|35.85755319|128.6299364
수성경찰서|35.8582127|128.6316205
범어2동우체국|35.85908894|128.632333
지산우체국|35.82339749|128.636776
수성아트피아|35.82928349|128.6282735
지산1동주민센터|35.82491506|128.6370564
황금119안전센터|35.83549384|128.626452
대구지방경찰청|35.82955033|128.6335773
지산2동주민센터|35.823137|128.6280502
지산2동치안센터|35.823356|128.62809
범물우체국|35.81777373|128.646299
범물1동주민센터|35.817791|128.645985
상동119안전센터|35.82509361|128.6093772
범물치안센터|35.81789619|128.6462967
수성소방서.119구조대.범물119안전센터|35.82546889|128.644264
범물2동주민센터|35.817568|128.643451
신매우체국|35.840592|128.7045922
고산1동주민센터|35.83709653|128.7123987
고산119안전센터|35.8402045|128.7044795
고산1동치안센터|35.837187|128.709041
신매역|35.84072155|128.7043666
고산2동주민센터|35.8434756|128.695198
고산2동치안센터|35.839677|128.694135
고산역|35.8428672|128.6938497
대공원역|35.8425968|128.6799919
연호역|35.84645926|128.6718388
고산지구대|35.843856|128.706547
수성119안전센터|35.85679239|128.6208969
수성4가동주민센터|35.862663|128.616665
범어3동치안센터|35.859949|128.622139
황금1동주민센터|35.843988|128.638164
황금지구대|35.841043|128.6346892
황금동우체국|35.8410401|128.634537
담티역|35.85486768|128.6536803
대구시노인종합복지관|35.84122389|128.6299045
수성구청소년수련관|35.8446788|128.6311825
황금2동주민센터|35.841561|128.625232
황금2동치안센터|35.8495398|128.617881
대구광역시과학교육원|35.845083|128.6271225
어린이회관|35.84713413|128.6279478
중동우체국|35.842256|128.616442
중동주민센터|35.847384|128.6150909
수성구보건소|35.84463884|128.612212
중동치안센터|35.847069|128.608679
상동주민센터|35.832159|128.615483
상동지구대|35.834544|128.6171856
파동우체국|35.808726|128.619994
파동주민센터|35.81545357|128.6151216
파동파출소|35.808621|128.6212799
두산동주민센터|35.82937671|128.6205781
대구광역시보건환경연구원|35.83041714|128.6321255
수성119구조대|35.82327874|128.6369939
한국환경공단 대구경북지역본부|35.8304698|128.631555
㈜다이시스|35.8992402|128.6155726
대구기계공구상협동조합|35.9049675|128.6063944
성광고등학교|35.90757154|128.6242273
성광중학교|35.90757154|128.6242273
복현2동 주민센터|35.8953539|128.6254941
한강근린공원|35.898678|128.513604
북구청소년회관|35.905774|128.6160608
산격종합시장|35.89863538|128.610351
대구은행 복현지점|35.898791|128.611674
대동초등학교|35.89736822|128.6118404
신세계여성병원|35.89784189|128.6136088
대구박병원|35.89682125|128.6136501
경북대학교|35.88909849|128.6143217
대현주유소|35.88884422|128.6034374
산격3동주민센터|35.89352623|128.6083117
산격초등학교|35.89455033|128.6063965
금강주유소|35.8908793|128.6057066
SG주유소|35.8946655|128.605101
대구체육관|35.8937914|128.6030093
대구시청 별관|35.8926195|128.6014592
경북지방경찰청|35.8926195|128.6014592
대구시청 별관|35.8926195|128.6014592
대구시청 별관|35.892627|128.6014592
산격4동주민센터|35.8922329|128.6042817
현대오일뱅크(주)대구현대주유소|35.91020751|128.607546
대구우편집중국|35.910326|128.614677
신기근린공원|35.907327|128.608926
대구시전자관사업협동조합|35.90720476|128.6070281
대구종합유통단지 전자도매상가|35.90545858|128.6049821
성화중학교|35.90323114|128.6202664
성화여자고등학교|35.90323114|128.6202664
성부정신수양원|35.90357247|128.6216443
상동LPG충전소|35.829434|128.6076588
버디클럽오일뱅크|35.828884|128.609828
동도중학교|35.849448|128.6396831
상동주유소|35.83378496|128.6112083
수성주유소|35.8256532|128.6096709
삼보주유소|35.82997428|128.6152831
수성초등학교|35.836837|128.610159
덕화중학교|35.83276018|128.6150474
삼육초등학교|35.83976557|128.610697
경북고등학교|35.84474548|128.6416364
국립대구박물관|35.84557624|128.638342
㈜율당골든게이트|35.843919|128.638467
황금게이트볼장|35.843767|128.625564
한국전파진흥원|35.840164|128.615388
동성초등학교|35.85344576|128.6127129
신명여자중학교|35.85813446|128.6090132
대구남산고등학교|35.85813446|128.6090132
수성현대시장|35.8494676|128.6093915
대봉교주유소|35.8541302|128.615422
동중학교|35.85819984|128.6159575
동일초등학교|35.8581009|128.6168809
태백시장|35.855106|128.616752
동성시장|35.855934|128.617083
교보생명빌딩|35.859304|128.617034
광덕빌딩|35.854694|128.615089
대구은행본점|35.8593128|128.6149484
아조빌딩|35.854497|128.6175504
더좋은병원|35.85461893|128.6184839
신천주유소|35.8637501|128.617688
대구중앙고등학교|35.86646165|128.6172855
수성하이츠쇼핑몰|35.86113839|128.6132142
중앙중학교|35.86646165|128.6172855
DFC(대구파이낸스센터)|35.84119013|128.6129872
대성주유소|35.846547|128.6145819
대구개인택시조합제1충전소|35.850931|128.613588
기분좋은주유소|35.847354|128.610086
아름다운주유소|35.847825|128.613334
수성시장|35.85427003|128.6160194
동일가스|35.841729|128.6084646
사랑가득주유소|35.850201|128.624536
동산가스|35.840681|128.624737
황금기름창고주유소|35.8406319|128.6180839
만포주유소|35.846752|128.6219309
황금초등학교|35.84422116|128.618389
황금시장|35.84839924|128.619974
화성산업본사사옥|35.840326|128.623549
믿음가득주유소|35.84252328|128.625041
대구고등지방검찰청|35.86334345|128.6290409
대구고등법원|35.86334345|128.6290409
복현 1동 주민센터|35.8937601|128.6185918
대구안식원|35.90384538|128.6228264
새복현빌딩|35.892525|128.6212594
대불노인복지회관|35.8986673|128.6169196
뉴라이프병원|35.8983513|128.6166701
대우골프클럽|35.9549684|128.556232
매천초등학교|35.91332533|128.5410377
매천콩이주유소|35.91158724|128.5422136
구도일주유소 대구|35.9108909|128.5420045
칠곡매천주유소|35.91038033|128.5418594
팔달충전소|35.90752673|128.5482314
SK네트웍스대경주유소|35.90629712|128.5477068
매천근린공원|35.906221|128.540574
농수산도매시장|35.90171139|128.5421593
강북컨벤션웨딩|35.9013856|128.5465913
매천주유소|35.90474974|128.5466665
도시철도3호선 매천시장역|35.90442956|128.5457786
도시철도3호선 매천역|35.91276182|128.5433752
관문초등학교|35.90869975|128.5461085
경상고등학교|35.90189838|128.6215328
한영주유소|35.89951958|128.6231191
들샘어린이공원|35.8965204|128.6169096
대구북중학교|35.89736782|128.6204392
복현초등학교|35.8976053|128.6215383
복현중학교|35.89398379|128.6262576
경진중학교|35.89394285|128.6279489
영진고등학교|35.89461348|128.6220753
문성초등학교|35.9058108|128.6203544
삼성빌딩|35.89341139|128.6208786
SK네트웍스 ㈜중앙주유소|35.8918624|128.6245038
대구개인택시제3충전소|35.89725389|128.6149835
기분좋은주유소|35.894396|128.618425
경진초등학교|35.89202775|128.6170922
구암주유소|35.94062533|128.5703126
동대구시장|35.88108006|128.6090919
동로주유소|35.88347003|128.6026115
대현동주민센터|35.88218727|128.6058146
동변초등학교|35.91913074|128.6041638
동변중학교|35.91925557|128.6056109
도시철도3호선 동천역|35.937766|128.556626
참물샘공원|35.933113|128.55697
동천빌딩|35.9319874|128.557514
북부초등학교|35.9334558|128.559215
들말공원|35.933212|128.559077
국립농산물품질관리원|35.94439653|128.559163
강북빌딩|35.942747|128.563134
동평초등학교|35.93900093|128.5608217
동천동 주민센터|35.937374|128.5581853
함지초등학교|35.93475358|128.5578616
동천근린공원|35.935133|128.560642
재우빌딩(국자감학원)|35.9437359|128.5578791
플러스빌딩|35.9429839|128.5577441
SK셀프주유소 동천점|35.9415333|128.5576234
도시철도3호선 팔거역|35.94407925|128.5583638
㈜홈플러스 칠곡점|35.944872|128.5559605
㈜마인드온|35.9431586|128.5556505
경상북도농업기술원|35.95811591|128.5608165
도시철도3호선 칠곡경대병원역|35.95843804|128.5598829
대구체육고등학교|35.95879779|128.5577175
농업인회관|35.95646399|128.5586781
경상북도공무원교육원|35.95673553|128.5571982
은성빌딩|35.8880459|128.582319
노원1가 새마을금고|35.8898383|128.5777151
공명주유소|35.88930428|128.5807004
노원동주민센터|35.8901384|128.5762308
해바라기어린이공원|35.88848|128.574247
K마디병원|35.88820396|128.5739129
대동주유소|35.887914|128.573866
강병원|35.89373123|128.5699863
팔달어린이공원|35.89243|128.569933
한국안광학산업진흥원|35.89937439|128.5785667
3공단주유소|35.89855166|128.5783812
노원셀프주유소|35.89564153|128.5718822
도시철도3호선 만평역|35.88983657|128.5610742
여성회관|35.8943257|128.555015
대기주유소|35.8912501|128.554901
흥구석유(주)원대주유소|35.89086859|128.558011
서민주유소|35.89045965|128.5598815
서대구터미널|35.8902418|128.5614324
만평주유소|35.89076541|128.5635598
원대새마을금고|35.889524|128.5650995
팔달공영주차장|35.89068676|128.5659881
M병원|35.8894235|128.5661958
팔달신시장 공중화장실(고객쉼터)|35.8895161|128.5668303
도시철도3호선 팔달시장역|35.88887392|128.5678858
팔달신시장(A)|35.8909297|128.5663818
산동주유소|35.89155443|128.5660515
SK㈜해바라기주유소|35.8831123|128.60807
신암초등학교|35.88376396|128.6116222
구암고등학교|35.92623868|128.5532052
다람쥐어린이공원|35.926163|128.555293
GS칼텍스㈜운암지주유소|35.9320596|128.5662961
학남초등학교|35.9462397|128.5662836
학남고등학교|35.9462037|128.5691923
학남중학교|35.94552955|128.5704372
북구구민운동장|35.9442628|128.573891
도남초등학교|35.94865981|128.577122
칠곡제일주유소|35.9473369|128.5727364
금호근린공원|35.895792|128.520309
주식회사금호지구충전소|35.89537299|128.5256319
검단동 행정복지센터|35.9134756|128.6272256
의료법인 배성의료재단|35.9081123|128.6222964
시민운동장|35.88301806|128.5861564
KT 북대구 고객서비스센터|35.8818763|128.5814518
대흥빌딩(기아자동차 영업소)|35.884522|128.5820328
대우주유소|35.8821078|128.5813812
대구도시공사|35.883162|128.589317
고성동주민센터|35.8818455|128.5835861
칠곡IC주유소|35.94307205|128.542094
신락어린이공원|35.944643|128.544648
관음동주민센터|35.9442414|128.5473329
송암어린이공원|35.942983|128.547153
관음중학교|35.9410402|128.5464918
관음초등학교|35.93992099|128.5471123
가산어린이공원|35.937288|128.544842
북구어울아트센터|35.9358662|128.5451274
관음근린공원|35.935191|128.546191
읍내어린이공원|35.940601|128.549664
관남초등학교|35.93683759|128.5477879
대구은행칠곡점|35.9360357|128.548534
KB국민은행대구강북지점|35.934991|128.5483841
성동병원|35.9408624|128.5475368
선린종합사회복지관|35.9378261|128.5455021
함지고등학교|35.92786686|128.5605141
한국농촌공사경북지역본부|35.9313747|128.557711
운암공원|35.9273826|128.5522212
해당화어린이공원|35.927013|128.552728
엘지 주유소|35.829388|128.562147
평화주유소|35.8496581|128.5982509
한국주유소(이월드주유소,힐탑주유소)|35.845647|128.5678886
삼구주유소(이칠주유소)|35.854594|128.590282
sk성당주유소|35.85781008|128.5747392
남산 주유소|35.850736|128.575538
처음처럼주유소(두류공원주유소)|35.8481896|128.5695384
도촌 주유소|35.842856|128.571868
진영 주유소|35.8591065|128.5747825
미니주유소|35.85232439|128.5911146
신대봉주유소|35.848459|128.6040897
경북가스충전소|35.843179|128.574587
대명주유소|35.8388645|128.5647937
매일주유소|35.843177|128.579693
그린에너지 직영주유소|35.843822|128.586571
경동주유소|35.845441|128.5938612
봉덕탑 주유소|35.845435|128.5940893
영남이공대앞 주유소|35.8493694|128.580495
남양 주유소|35.8446274|128.596753
이천 주유소|35.851878|128.598188
도원주유소|35.856453|128.5869243
대구제1 주유소|35.840558|128.581776
삼성주유소|35.845093|128.579778
자영주유소|35.85316849|128.5837089
구민체육광장|35.832558|128.600239
개인택시조합충전소|35.91003645|128.6253366
이천시장|35.85300583|128.6051904
대명동역 역사 화장실|35.84117422|128.5819228
성당못 역사 화장실|35.838024|128.567176
영대병원 역사 화장실|35.84395033|128.5876181
현충로 역사 화장실|35.840941|128.581409
교대역사|35.8418565|128.5864873
서부정류장|35.83666155|128.5570656
안지랑역사 화장실|35.843843|128.573439
한마음주유소|35.834151|128.561611
글로벌주유소|35.84095811|128.573401
삼양주유소|35.852484|128.5740982
㈜KT산격지점|35.902915|128.6042361
팔달중학교|35.8989473|128.5449144
도시철도3호선 팔달역|35.89782463|128.5467222
강북주유소|35.95050269|128.5699663
육일주유소|35.95823655|128.5662189
도시철도3호선 학정역|35.951554|128.5591896
학정주유소|35.9512726|128.5698354
대구학정초등학교|35.94822675|128.568978
경신고등학교|35.855446|128.6375894
경신중학교|35.855446|128.6375894
대구경동초등학교|35.85220526|128.6393816
정화중학교|35.85090566|128.6405813
태전중앙시장|35.9216539|128.5449086
태전1동주민센터|35.92413031|128.5434011
태현초등학교|35.92816693|128.5406343
대구과학대학교|35.92925314|128.5427827
SK네트웍스 직영 한일주유소|35.92382664|128.5465505
송림스포츠프라자|35.92335193|128.5464659
문요양병원|35.91536607|128.547934
태전빌딩|35.9186021|128.5480682
기분좋은SELF주유소|35.9215594|128.5471355
태전2동주민센터|35.9214822|128.5487684
대구보건대학교|35.92684373|128.5440255
대구병원|35.9132674|128.5487689
지에스칼텍스㈜삼광주유소|35.9113349|128.5489222
태백산self오일뱅크|35.9100036|128.548719
패밀리주유소|35.90872927|128.5486182
도시철도3호선 태전역|35.91967055|128.5473913
태전근린공원(A)|35.9316356|128.5461611
태전초등학교|35.9302356|128.5460296
네오시티플라자|35.9323081|128.548875
KT 북대구지사|35.931636|128.5530326
관천중학교|35.93116294|128.5526146
관천초등학교|35.9305641|128.5520482
강북고등학교|35.92972736|128.541223
현대오일뱅크 칠곡IC충전소|35.92345861|128.5381632
영송여자고등학교|35.9290165|128.541843
오일월드주유소|35.89878529|128.5476718
팔달초등학교|35.8979308|128.5449083
전기재료관|35.9050616|128.6077122
전기조명관|35.905663|128.608293
대구종합유통단지섬유제품관|35.906233|128.6096678
NC아울렛|35.9052073|128.6103687
대구일중학교|35.88627361|128.584197
대구달산초등학교|35.88769872|128.5851441
대구지방국세청 정보화센터|35.8878718|128.5834626
북대구세무서|35.88830808|128.5835377
화성파크드림갤러리|35.8888087|128.5836096
연우빌딩|35.88850169|128.5844396
북부도서관|35.8851564|128.5838419
북부경찰서|35.88645267|128.5826458
대구광역시북구청|35.88593702|128.5823875
한국전력공사|35.88717773|128.583152
침산초등학교|35.8911138|128.5850731
보건복지센터|35.8918696|128.588898
침산3동주민센터|35.8920297|128.5893493
침산2동주민센터|35.887229|128.596993
경북광유㈜침산주유소|35.90128|128.5877123
경상여자고등학교|35.90054277|128.5878231
㈜한신가스충전소|35.900894|128.58486
샛별어린이공원|35.927928|128.549842
태암초등학교|35.9230319|128.5505023
매천고등학교|35.91159467|128.5472384
매천중학교|35.91048332|128.5473275
덕영주유소|35.922413|128.539631
대일종합에너지오일뱅크 태전점|35.92205946|128.5460641
두바이주유소|35.8717663|128.747306
MMC만경관|35.87096131|128.5904232
SC제일은행|35.87257376|128.5960719
SK텔레콤빌딩|35.86396883|128.6009458
진석타워|35.86509323|128.6026706
코리아빌딩|35.87309393|128.5948245
태남빌딩|35.87058865|128.5892245
태왕빌딩|35.87074615|128.5901891
태평주유소|35.87558725|128.5909117
파일론빌딩|35.86269852|128.6026303
패션주얼리전문타운|35.87177748|128.5966971
패션주얼리특구고객지원센터|35.87416567|128.5967594
하나은행빌딩|35.86503915|128.5941661
삼성생명빌딩(하서지점)|35.86988978|128.5883746
한국은행 대구경북본부|35.8679686|128.6031575
종각빌딩|35.86937715|128.6044527
한전대구전력관리처|35.87256523|128.6014256
행운주유소|35.87635565|128.589518
현대백화점|35.86663023|128.5906256
현대증권 빌딩(SH타워)|35.86485389|128.5951724
현대캐피탈㈜대구사옥|35.86853714|128.5939762
협성교육재단 협성빌딩|35.86717603|128.5940493
대구YMCA청소년회관|35.87063056|128.5898671
호수빌딩|35.86935551|128.601189
SK네트웍스㈜풍국주유소|35.87272385|128.6056502
흥국생명보험㈜|35.86602903|128.594513
흥국생명㈜ 대구사옥|35.8711717|128.5934479
흥국석유㈜ 동인주유소|35.87151175|128.6047619
KT대구지사(신관)|35.86968078|128.603556
케이티 에스테이트(본관)|35.86968078|128.603556
LG유플러스 대구동인사옥|35.87127753|128.6047329
영남동창회관|35.86206085|128.582108
롯데영프라자 대구점|35.87137263|128.594734
하나은행(구.외환은행 대구지점)|35.87141335|128.593793
우리은행 대구지점|35.87034114|128.5942797
우석빌딩|35.85709738|128.5925677
원진빌딩|35.86897372|128.6093663
일광빌딩(센트럴M)-에스닷중앙로점|35.86775346|128.5938988
대암프라이빗(ZARA)|35.8685966|128.594558
정무빌딩|35.87357689|128.5875802
조양주유소|35.86265962|128.6031888
㈜유화몰|35.86694354|128.5972698
㈜대구백화점|35.86946137|128.5959601
㈜대구프뢰벨|35.86076109|128.5935141
㈜동서개발|35.86322867|128.5754508
㈜아카데미극장|35.86999575|128.5943029
㈜제일진흥|35.86832088|128.593972
중구선거관리위원회|35.86606478|128.587231
중부경찰서|35.87188062|128.5904649
중앙로역(1호선)|35.87097958|128.5940223
중앙파출소|35.8696387|128.588821
회당빌딩|35.85580554|128.5986032
서문시장2지구|35.86881524|128.5795331
향촌문화관|35.8734065|128.5941956
화성파크드림시티|35.87007647|128.6022664
남산역(3호선)|35.85668201|128.5832272
신남역(청라언덕역)(3호선)|35.86415968|128.582367
서문시장역(3호선)|35.86979356|128.5822422
달성공원역(3호선)|35.87564391|128.5820858
계명대학교 동산병원|35.87017966|128.5825214
선교사 문화관광지(사택지)|35.86660785|128.5849568
선모빌딩|35.86037619|128.6037981
섬유회관|35.87032237|128.5842735
성내1동 주민센터|35.86924714|128.5980291
성내2동 행정복지센터|35.86838367|128.5903861
성내3동 행정복지센터|35.87259209|128.5857289
성명여자중학교|35.86965532|128.5837421
소석문화센터|35.86357944|128.6030876
수평빌딩(MS저축은행)|35.87015516|128.6038828
시민빌딩|35.87077887|128.579791
신남치안센터|35.85738851|128.5809666
신명고등학교|35.86965532|128.5837421
신용보증기금 대구지점|35.87195946|128.5994567
신한빌딩|35.86531711|128.5962721
씨네시티한일빌딩|35.87049514|128.5953808
ABL대구타워|35.86594946|128.5886918
약령시한의약박물관|35.86853023|128.5899179
약령시한의약박물관 관광안내소|35.8681384|128.589975
역전치안센터|35.87523416|128.5930907
평화시장|35.88300524|128.6192562
동부도서관|35.8901537|128.6215946
백두산주유소|35.89136623|128.6239094
신암5치안센터|35.889629|128.6346923
신남역(청라언덕역)(2호선)|35.86490684|128.5824697
서문지구대|35.87135367|128.5839258
푸른병원|35.87597039|128.5889961
비젼디엔씨|35.87724144|128.7321517
동원LPG주유소|35.87470911|128.7390231
코아루파크뷰|35.87902292|128.7328416
덕산주유소|35.99143172|128.6164002
팔공산LPG충전소|35.99187168|128.6161164
달구벌고등학교|35.99454187|128.6108128
심인중 본관|35.84969944|128.5783332
명덕시장|35.84503|128.5877947
(주)대구은행|35.88446|128.5882957
오거리주유소|35.89889693|128.6155662
황금중학교|35.84414133|128.6194884
파동주유소|35.81049626|128.618434
효성여성병원|35.8428331|128.6127725
우신빌딩|35.8476818|128.625332
남대구 세무서 화장실|35.83838008|128.5718051
대명5동 치안센터 화장실|35.84307214|128.5831469
남부경찰서 화장실|35.84307214|128.5831469
동대명지구대 화장실|35.8539014|128.5915225
대명동 우체국화장실|35.847439|128.5797932
명동 치안센터|35.853151|128.5776402
서대명지구대|35.83720084|128.579507
봉덕2동사무소|35.843825|128.601106
봉덕3동사무소|35.8416973|128.5982576
이천동사무소|35.8536812|128.599451
대명1동사무소|35.84049436|128.5774502
대명2동사무소|35.855299|128.5862413
대명3동사무소|35.85229964|128.5790578
대명5동사무소|35.8432344|128.587884
대명4동사무소|35.84849716|128.5724479
대명9동사무소|35.83509159|128.5660918
대명6동사무소|35.83509159|128.566064
대명10동사무소화장실|35.84002858|128.568929
대명11동사무소화장실|35.83624038|128.5606341
대덕문화전당|35.8431565|128.5875407
남구보건소|35.8539014|128.5915225
대구교육정보원|35.85183327|128.5865488
달성교육청|35.84119472|128.562198
남부도서관|35.8320699|128.5807583
봉덕동우체국|35.84179506|128.6055157
봉덕3동우체국|35.83858114|128.5948638
봉천지구대|35.8460903|128.5988618
남구청사(별관)|35.84552704|128.5978365
남구청  본관 화장실|35.84552704|128.5978365
상수도 중남부 사업소 화장실|35.85520081|128.5981502
성명치안센터 화장실|35.838736|128.564778
상수도 사업 본부 화장실|35.85445689|128.5961118
대명11동 치안센터 화장실|35.8396181|128.5635867
대명치안센터|35.84613515|128.5672697
덕천치안센터|35.833215|128.6005691
낙동강승전기념관|35.82716989|128.5887886
남구 종합 사회 복지관|35.849241|128.5919719
안지랑골 사무실앞 화장실|35.842279|128.584543
안일사 앞 화장실|35.84395033|128.5876181
대덕쉼터|35.829015|128.589131
앞산공원 사무소|35.829015|128.589131
대성사 앞 화장실|35.844698|128.590344
은적사 앞 화장실|35.829015|128.589131
유기장 뒤 화장실|35.829015|128.589131
고산골 사무실 옆 화장실|35.836592|128.582928
고산골 사무실내|35.836592|128.582928
대구은행역|35.85974064|128.6142264
명동공원 화장실|35.8531699|128.5776402
대명제2공원|35.84544745|128.5834288
큰골 주차장 화장실|35.8430872|128.588624
충혼탑 화장실|35.832381|128.583421
가무장 지구내 화장실|35.841478|128.597182
모험시설 지구내 화장실|35.827025|128.589561
케이블카 정상화장실|35.82408217|128.5793837
구 제4약수터 화장실|35.827025|128.589561
고산골 공연장지구내|35.827025|128.589561
대명초등a|35.8388746|128.5688886
대명초등b|35.8388746|128.5688886
봉덕초등학교|35.8396828|128.5968428
봉덕초 강당|35.8396828|128.5968428
영선 초등학교|35.85290101|128.596066
효명초등학교 본관|35.83465202|128.6010844
효명초등학교 강당|35.83465202|128.6010844
카페에셀|35.83487862|128.5948982
대봉초등학교 생활관|35.85166281|128.6048091
대봉초등학교 후관|35.85166281|128.6048091
대봉초등학교 본관|35.85166281|128.6048091
대구중학교 A동|35.85007747|128.6036791
대구중학교 B동|35.85007747|128.6036791
대구교대본부|35.85143184|128.5877407
대구교대제1강의동 화장실|35.85143184|128.5877407
대구교대과학관|35.85143184|128.5877407
대구교대 강당 화장실|35.85143184|128.5877407
대구교대 학생회관|35.85143184|128.5877407
대구교대제2강의실|35.85143184|128.5877407
대구교대복지관|35.85143184|128.5877407
대구교대 도서관|35.8510718|128.5902966
영남이공대학교 건축관|35.84716173|128.5865487
이공대 목공예관|35.84716173|128.5865487
영남 이공대 도서관|35.84716173|128.5865487
영남이공대 공학관|35.84716173|128.5865487
영남이공대 사회관|35.84716173|128.5865487
영남이공대 산학관|35.84716173|128.5865487
영남이공대 본관|35.84716173|128.5865487
영남이공대 예지관|35.84716173|128.5865487
영남이공대 쉼터|35.84716173|128.5865487
이공대 전기관|35.84716173|128.5865487
영남이공대 체육관|35.84716173|128.5865487
영남이공대 정보관|35.84716173|128.5865487
영남이공대 컴퓨터관|35.84716173|128.5865487
영남이공대 학생회관|35.84716173|128.5865487
영남이공대 토목관|35.84716173|128.5865487
영남이공대 희망관|35.84716173|128.5865487
심인고 체육관|35.84969944|128.5783332
심인고 교사동|35.84969944|128.5783332
심인고 정보관|35.84969944|128.5783332
심인고 본관|35.84969944|128.5783332
심인고 동관|35.84969944|128.5783332
심인중 서관|35.84969944|128.5783332
심인중 본관|35.84969944|128.5783332
대구YWCA|35.8384071|128.5800721
협성고등학교|35.83809438|128.598108
협성중학교|35.83809438|128.598108
경북예고 무용관동|35.8545218|128.5885255
경북예고 대동관동|35.8545218|128.5885255
경북예고 미술관동|35.85100097|128.5854432
경북여자 정보고|35.85494018|128.5887493
대구여상 별관|35.84901891|128.5832076
대구여상 본관|35.84901891|128.5832076
계명대학교 전문관|35.85552235|128.5793165
계명대 ITC|35.85552235|128.5793165
계명대학교 도서관|35.85552235|128.5793165
대구대학교 재활관|35.85594572|128.5750742
대구대학교 재활대|35.85594572|128.5750742
대구광명 학교|35.85594572|128.5750742
대구 광명학교 기숙사|35.85594572|128.5750742
대구 대학교 대강당|35.85594572|128.5750742
대구대학교 미술부|35.85594572|128.5750742
대구대학교 보건부|35.85594572|128.5750742
대구대학교 본관|35.85594572|128.5750742
대구 덕희학교|35.85594572|128.5750742
대구보명학교|35.85594572|128.5750742
대구영화학교교사동|35.85594572|128.5750742
대구영화학교 직업관|35.85594572|128.5750742
대구보건학교|35.85594572|128.5750742
경상공고 죽암1관 화장실|35.84521912|128.574198
경상공고 죽암2관 화장실|35.84521912|128.574198
경상공고 본관|35.84521912|128.574198
경상공고 교사동|35.84521912|128.574198
경일여중학교|35.83809438|128.598108
경일여고 본관|35.83809438|128.598108
경일여고 신관|35.83809438|128.598108
경복중학교|35.835461|128.597241
대덕초등학교 화장실A|35.83043784|128.5616758
대덕초등학교 화장실B|35.83043784|128.5616758
이천동 치안센터 화장실|35.846031|128.604939
대구교대 제2강의동 화장실|35.85143184|128.5877407
남도 초등학교 A동 화장실|35.84502719|128.5814016
남도 초등학교B동 화장실|35.84502719|128.5814016
대덕초등학교 화장실C|35.83043784|128.5616758
경상중 체육관|35.85262023|128.585369
남대구 초등학교 화장실 A|35.853567|128.5864972
남대구 초등학교 화장실B|35.853567|128.5864972
경상중학교본관|35.85262023|128.585369
대구고 강당|35.8506302|128.5903105
대구고 본관|35.8506302|128.5903105
대구고 교사동|35.8506302|128.5903105
성명초등 체육관 화장실|35.84515515|128.5708232
성명초등 후관 화장실|35.84515515|128.5708232
성명초등 본관 화장실|35.84515515|128.5708232
성명초등 합숙소 화장싱|35.84515515|128.5708232
경혜여자중학교 화장실|35.84318099|128.5641037
남명초 A동|35.8343643|128.5819868
남명초 B동|35.8343643|128.5819868
남덕초등학교 A동|35.83306406|128.5739489
남덕초등학교 B동|35.83306406|128.5739489
대명중학교 체육관|35.83308865|128.576747
대명중학교|35.83308865|128.576747
영남대학교의과대학|35.84716173|128.5865487
홈스파월드|35.833011|128.5961349
보훈회관|35.8449906|128.5915971
대현교회|35.8463291|128.5978927
봉덕교회|35.84277313|128.6037888
KT&G|35.83862957|128.5711947
평강교회|35.8350888|128.5953687
한국불교대학관음사|35.844348|128.591042
삼성홈플러스|35.83869034|128.5698546
삼광빌딩|35.835283|128.5562682
프라임빌딩|35.839621|128.5648749
불교사회복지회|35.852648|128.5992856
대덕 복지회관|35.836162|128.5837978
보선빌딩|35.845723|128.5803732
신화빌딩|35.850811|128.5817822
동호빌딩|35.8537135|128.583532
현대자동차|35.838923|128.5779867
신광빌딩|35.844811|128.6020945
대덕빌딩|35.8397168|128.5665743
남산빌딩|35.851959|128.590251
카톨릭문화관|35.855911|128.5864968
우체국예금보험|35.850686|128.5909973
한국 농촌공사|35.856419|128.5744997
도로교통관리공단|35.82992103|128.5606697
대구은행|35.8498695|128.5723987
대명성당|35.84267206|128.5845114
통일회관|35.84267206|128.5845114
불교문화원|35.8561994|128.589772
한국불교대학별관|35.844381|128.591079
대봉제일교회|35.84888987|128.6040758
순복음대구교회|35.84148737|128.5612903
대우자동차판매|35.8403446|128.5794761
외환은행 봉덕점|35.846142|128.5908766
APLO빌딩|35.8416516|128.5835752
앞산케이블카화장실|35.82236049|128.5792832
전인병원|35.8433237|128.5694678
푸른병원|35.8565625|128.5926952
굿모닝 병원|35.853045|128.5740935
오연합정형외과|35.8407706|128.5819677
힘센병원|35.8451625|128.5989044
성심병원|35.8375427|128.5590817
문성병원|35.848792|128.5704295
영남대학의료원|35.84716173|128.5865487
영남대학의료원(호흡기 전문질환)|35.84716173|128.5865487
대구가톨릭병원 본관|35.8441899|128.5657926
대구가톨릭병원(통합진료센터)|35.8441899|128.5657926
대구가톨릭병원(장례식장)|35.8441899|128.5657926
성명상가아파트|35.84709582|128.568785
광덕시장|35.8371957|128.582442
남부시장|35.84140207|128.5769292
남산시장|35.838204|128.578841
성당시장(1)|35.85016987|128.572972
성당시장(2)|35.85016987|128.572972
봉덕시장 (돼지수육) 화장실|35.8451394|128.6033937
봉덕시장 주차장 화장실|35.8451394|128.6033937
대명시장(2)|35.8580114|128.5768851
대명시장(1)|35.85840906|128.5771776
대명중앙시장|35.836871|128.5677171
관문시장(1)|35.83553626|128.5590764
관문시장(2)|35.83553626|128.5590764
구 봉덕시장 (1)|35.84550213|128.603494
대덕시장|35.85151551|128.5827658
명덕시장|35.84503658|128.5877947
영선시장|35.85249423|128.5929864
이천시장(대봉상가)|35.85300583|128.6051904
대명동역 역사 화장실|35.84117422|128.5819228
성당못 역사 화장실|35.838024|128.567176
영대병원 역사 화장실|35.84395033|128.5876181
현충로 역사 화장실|35.840941|128.581409
교대역사|35.8418565|128.5864873
서부정류장|35.83666155|128.5570656
안지랑역사 화장실|35.843843|128.573439
한마음주유소|35.834151|128.561611
글로벌주유소|35.8409453|128.5734075
삼양주유소|35.852484|128.5740982
엘지 주유소|35.829388|128.562147
평화주유소|35.8496581|128.5982509
현대오일뱅크|35.845647|128.5678886
이칠주유소|35.854594|128.590282
sk성당주유소|35.85781008|128.5747517
처음처럼주유소|35.8481896|128.5695384
도촌 주유소|35.842856|128.571868
진영 주유소|35.8591065|128.5747825
미니주유소|35.852345|128.5911325
신대봉주유소|35.84847877|128.6040897
경북가스충전소|35.843179|128.574587
매일주유소|35.843177|128.579693
그린에너지 직영주유소|35.843822|128.586571
경동주유소|35.845441|128.5938612
봉덕탑 주유소|35.845435|128.5940893
영남이공대앞 주유소|35.8493694|128.580495
남양 주유소|35.8446274|128.596753
이천 주유소|35.851878|128.598188
도원주유소|35.856453|128.5869243
대구제1 주유소|35.840558|128.581776
sk삼성주유소|35.845093|128.579778
자영주유소|35.85316849|128.5837089
구민체육광장|35.832558|128.600239
들안길초등학교|35.83886793|128.618451
노변공원|35.839212|128.699037
사월역|35.8367659|128.7153619
시지초등학교|35.843725|128.7031926
오성고등학교|35.85370025|128.6447211
황금역|35.83918923|128.6242971
황금중학교|35.84414133|128.6194884
황금지구대|35.84102749|128.6346892
황금초등학교|35.84422116|128.6183757
지에스칼텍스㈜황금캐슬주유소|35.8388163|128.62668
효산병원|35.85219614|128.624677
효성아동병원|35.84321413|128.612851
효성여성병원|35.8429994|128.6128651
흥구석유(주)만촌주유소|35.87566879|128.6442806
한패밀리병원|35.83130433|128.6239644
수성명가요양병원|35.84661148|128.6228888
현대증권빌딩|35.85827376|128.6270819
홈플러스대구스타디움 고객화장실|35.83166106|128.6873219
홈플러스수성점|35.83791279|128.6226818
지에스칼텍스㈜화남주유소|35.84335144|128.6919874
화랑공원|35.87213596|128.6390614
화성어린이공원|35.82542662|128.6293523
화성산업본사사옥|35.84032889|128.623537
황금119안전센터|35.83549384|128.6264323
황금1동주민센터|35.84398352|128.6381448
황금2동주민센터|35.84154599|128.625207
황금2동치안센터|35.84951572|128.6178633
황금게이트볼장|35.84361769|128.6254668
황금기름창고주유소|35.84061863|128.6180598
황금동우체국|35.84102843|128.6345124
황금시장|35.84839924|128.6199743
대륜중학교|35.85168566|128.6567622
KB손해보험|35.85964661|128.6248179
대륜고등학교|35.85168566|128.6567622
한국광유㈜ 남부주유소|35.85666748|128.6496663
DFC(대구파이낸스센터)|35.84119013|128.6129872
참저축은행빌딩|35.8656274|128.6262378
창성빌딩|35.83978157|128.7073502
천주성삼병원|35.84022496|128.7057158
청곡종합사회복지관|35.83759349|128.6984653
청구리빙월드|35.82080311|128.6395193
청구시장|35.8650081|128.6442389
청림초등학교|35.83563518|128.7033769
청운신용협동조합|35.86705306|128.6186087
한결주유소|35.82607536|128.6259486
킹덤오피스텔|35.86487416|128.6275387
태백시장|35.85519075|128.616756
파동우체국|35.80871978|128.6199697
파동주민센터|35.81545357|128.6151216
파동주유소|35.81049626|128.6184122
파동초등학교|35.82468309|128.6077313
파동파출소|35.80860481|128.6212799
파티마여성병원|35.84283694|128.6983333
한국광유㈜ 남부주유소|35.85666748|128.6496663
한국광유㈜사월주유소|35.83633813|128.716717
한국방송광고공사|35.84148568|128.6247637
한국전파진흥원|35.84014577|128.6153663
한국환경공단 대구경북지역본부|35.83048959|128.6315396
한일주유소|35.83901141|128.6255685
정암빌딩|35.86092932|128.6259999
정화여자고등학교|35.85090566|128.6405813
정화중학교|35.85090566|128.6405813
㈜대구방송TBC|35.83230375|128.6224447
㈜율당골든게이트|35.84391854|128.6384986
㈜일선 이주빌딩|35.87144748|128.6346225
중동우체국|35.84223142|128.616423
중동주민센터|35.84734878|128.6150909
중동치안센터|35.8470301|128.6086555
중앙어린이공원|35.81787799|128.6387322
중앙중학교|35.86710725|128.6165606
중앙초등학교|35.87001293|128.6403507
지노메디여성병원|35.87081097|128.6339752
지봉초등학교|35.82546519|128.6408054
지산1동행정복지센터|35.82491506|128.6370564
지산2동주민센터|35.82312622|128.6280171
지산2동치안센터|35.82333317|128.62809
지산공원|35.82093041|128.6376168
지산목련시장|35.82561632|128.6411849
지산어린이공원|35.83500044|128.6273028
지산역|35.82512619|128.6315524
수성1가동주민센터|35.85658128|128.609522
지산우체국|35.82339749|128.6367401
지산제일주유소|35.82655863|128.6368798
지산중학교|35.82463738|128.6285991
지산지구대|35.82312295|128.6371806
지산초등학교|35.82695807|128.6301691
차량등록사업소|35.86663419|128.6397552
아레나스포츠센터|35.84031802|128.7052185
㈜태산이앤엘 중동셀프주유소|35.8478245|128.613311
아조빌딩|35.85448364|128.6175477
아주빌딩|35.82107648|128.6390996
어린이회관|35.84713413|128.6279478
어린이회관역|35.84508112|128.6248363
에덴어린이공원|35.82156181|128.6324204
에스제이주유소|35.85565652|128.6514347
여성메디파크병원|35.8546625|128.62474
연호게이트볼장|35.8475023|128.6721262
연호역|35.84713714|128.671304
연호주유소|35.84656129|128.6711662
영광빌딩|35.85948674|128.6135341
영남공업고등학교|35.848429|128.6469277
오성고등학교|35.85370025|128.6447211
오성중학교|35.85370025|128.6447211
용지역|35.81838205|128.6468777
용지초등학교|35.8220084|128.6327215
용학도서관|35.82120933|128.6461294
우정법원빌딩|35.86165285|128.6289748
욱수초등학교|35.83137816|128.707699
유성빌딩|35.85786904|128.6489408
율촌빌딩|35.86163581|128.6287846
이마트만촌점|35.8712065|128.6371469
장애인재활센터|35.86597716|128.6492063
정다운주유소|35.80956661|128.6191886
수성우체국|35.8593054|128.6158579
수성유원지(보트장쪽)|35.82644007|128.6181931
수성유원지(삼풍아파트 동편)|35.82483646|128.6145395
수성유원지(상화동산)|35.82937671|128.6205781
수성주유소|35.82601643|128.609387
수성주유소|35.85922817|128.6316135
수성중학교|35.82587242|128.6072064
수성에스주유소|35.82603577|128.6264016
수성초등학교|35.836837|128.610159
수성치안센터|35.85288281|128.6186534
수성패밀리파크|35.87035122|128.6730504
수성하이츠쇼핑몰|35.86113839|128.6132142
수성현대시장|35.8494676|128.6093915
시민공원|35.86328306|128.6309144
시민생활스포츠센터|35.82827371|128.6791246
시지고등학교|35.8301023|128.7074241
시지중학교|35.83551915|128.7089283
시지초등학교|35.8437252|128.7031926
신매공원|35.83378263|128.7038213
신매역|35.84031802|128.7052185
신매우체국|35.84050198|128.7045922
신매초등학교|35.83634517|128.7092701
신명여자중학교|35.85813446|128.6090132
신세계주유소|35.8173681|128.6134742
신천주유소|35.86372155|128.6176748
신화명품주유소|35.83671506|128.6243573
우정법원빌딩|35.861671|128.628997
송원교육문화센터|35.85920445|128.6386361
수성119구조대|35.82327874|128.6369939
수성119안전센터|35.85679239|128.6208969
만포주유소|35.84666519|128.6218043
수성1가우체국|35.86002489|128.6108846
수성2.3가동주민센터|35.85476452|128.6190113
수성4가동주민센터|35.86264525|128.6166478
수성경찰서|35.85826801|128.6316205
수성고등학교|35.82127606|128.6254677
수성구민운동장역|35.85244227|128.625348
수성구보건소|35.84463884|128.6122124
수성구청|35.85755319|128.6299364
수성구청소년수련관|35.8446788|128.6311825
수성구청소년수련원|35.79910877|128.6723703
수성구청역|35.8585178|128.6355157
수성국민체육센터|35.84831469|128.6304191
수성대학교|35.85437065|128.6468293
수성도서관|35.87213596|128.6390614
수성메트로병원|35.8594036|128.6460191
수성못역|35.83141926|128.6236075
수성셀프주유소|35.84288702|128.6786184
수성소방서.119구조대.범물119안전센터|35.82546889|128.6442386
수성시장|35.85426618|128.6160181
수성시장역|35.85426618|128.6160181
수성아트피아|35.82928349|128.6282735
범어초등학교|35.8606616|128.6327724
범어타워|35.86514871|128.6275158
법무빌딩|35.86183003|128.6261195
복명초등학교|35.81762519|128.647218
복음선교관|35.83191727|128.6239691
부광빌딩|35.85841543|128.6361238
불교한방병원|35.82399337|128.6242057
사랑가득주유소|35.85026502|128.6245892
사월역|35.83656497|128.7164645
사월초등학교|35.83405266|128.7150423
㈜태영오일 삼보주유소|35.82997428|128.6152831
삼성증권빌딩|35.85835267|128.6275093
삼성화재 대구사옥|35.86615573|128.6262422
삼육초등학교|35.83976557|128.6106256
삼희빌딩|35.85888024|128.6237711
상동119안전센터|35.82509717|128.609373
상동방천주유소|35.83257155|128.6070715
상동주민센터|35.83212348|128.6154591
상동지구대|35.83451216|128.6171856
대구일보빌딩|35.85972355|128.627343
새마을금고중앙회 대구지역본부|35.86677252|128.6252283
새범어종합시장|35.86627372|128.6351589
샛별주유소|35.86506974|128.6490965
성광빌딩|35.86193168|128.6278873
성동초등학교|35.8409043|128.6322828
소선여자중학교|35.85294938|128.6497973
범어타워|35.86518|128.627516
구도일주유소 무열로|35.8740809|128.6461386
무학어린이공원|35.82500235|128.6396969
문화주유소|35.82629098|128.6442084
배수지어린이공원|35.81606017|128.6482787
버디클럽오일뱅크|35.82884447|128.6098113
범물1동주민센터|35.8177491|128.6459685
범물2동주민센터|35.81750129|128.6434434
범물어린이공원|35.81717261|128.6442265
범물역|35.82067898|128.6402289
범물우체국|35.81777373|128.6462897
범물종합사회복지관|35.81869686|128.6470524
범물중학교|35.81501768|128.6398557
범물초등학교|35.82148442|128.6448572
범물치안센터|35.81789619|128.6462967
범어1동주민센터|35.85553326|128.6220509
범어2동우체국|35.85908894|128.6323093
범어2동주민센터|35.86009063|128.6312765
범어3동주민센터|35.86610038|128.6178041
범어3동치안센터|35.85994006|128.6221186
범어4동주민센터|35.85810872|128.6412477
범어4동치안센터|35.85465161|128.6388173
범어궁도장|35.84880032|128.6308065
범어도서관|35.85937259|128.6306729
범어빌딩|35.86229872|128.6260704
범어역|35.85875474|128.6247334
범어지구대|35.8584875|128.6250937
킹덤오피스텔|35.86487416|128.627555
동천초등학교|35.86584544|128.6252838
두산동주민센터|35.82937671|128.6205781
두산평생학습센터|35.83920303|128.6181617
두산초등학교|35.83259685|128.6260882
들안길초등학교|35.83886793|128.6184115
로터리시장|35.86274588|128.6250638
만촌119안전센터|35.85533716|128.6521087
만촌1동우체국|35.86887976|128.6467717
만촌1동주민센터|35.87291413|128.6468897
만촌1동치안센터|35.87504366|128.6464454
만촌2동주민센터|35.8598612|128.6472298
만촌3동주민센터|35.85550776|128.6505711
만촌시장|35.8716769|128.6462441
만촌역|35.85935366|128.6443995
만촌인라인롤러경기장|35.87290303|128.6582535
만촌자전거경기장|35.87290303|128.6582535
만촌종합시장|35.8548536|128.651529
만촌지구대|35.86828155|128.6488597
만촌초등학교|35.86669044|128.6479211
매동초등학교|35.84521248|128.7092123
매호공원|35.84463371|128.7039616
매호중학교|35.8439206|128.7022833
메트로팔레스주유소|35.86819261|128.6314184
무열로119안전센터|35.87073513|128.648153
대청초등학교|35.85090774|128.6501668
대한주유소|35.83583487|128.7189672
더좋은병원|35.85461893|128.6184839
덕원고등학교|35.82497363|128.70638
덕원중학교|35.82497363|128.70638
덕화중학교|35.83276018|128.6150474
동대구가스충전소|35.86707606|128.6304905
동대구농협|35.85924346|128.6346468
동도중학교|35.84942833|128.6396831
동도초등학교|35.8570927|128.6240228
동문고등학교|35.87730272|128.6510331
동문초등학교|35.87485823|128.6524257
동산가스|35.84066527|128.624713
동산초등학교|35.84910235|128.6280729
동성시장|35.85591886|128.6171381
동성초등학교|35.85344576|128.6127129
흥구동신주유소|35.83983423|128.6183915
동아백화점수성점|35.82107368|128.6403609
동아스포츠센터|35.82601392|128.6293531
동원빌딩|35.87484762|128.6426515
동원빌딩|35.82052111|128.6399999
동원중학교|35.8758568|128.6510695
동원초등학교|35.86486838|128.639886
동일가스|35.84172228|128.6084646
동일빌딩|35.85925127|128.6365777
동일초등학교|35.8581009|128.6168809
동중학교|35.85819984|128.6159575
대구스타디움(야외공연장|35.83166106|128.6873219
대구스타디움(제1주차장)|35.83166106|128.6873219
대구스타디움(제2주차장)|35.83166106|128.6873219
대구스타디움(종합안내소)|35.83166106|128.6873219
대구스타디움(주경기장)|35.83166106|128.6873219
대구시교육청|35.85836923|128.6146193
대구시노인종합복지관|35.84122389|128.6299865
대구시시지노인병원|35.82889639|128.7103635
대구여자고등학교|35.85658816|128.6298635
대구육상진흥센터|35.82827371|128.6791246
대구은행본점|35.8593128|128.6149484
대구은행시지점|35.84013216|128.7061689
대구은행역|35.85901258|128.6149588
대구농업마이스터고등학교|35.83578109|128.7007108
대구장애인종합복지관|35.82695723|128.6069494
대구중앙고등학교|35.86646165|128.6172855
대구지방경찰청|35.82955033|128.6335773
대구고용노동청|35.85097657|128.6244888
대구혜화여자고등학교|35.8498571|128.6476657
대륜고등학교|35.85168566|128.6567622
대륜중학교|35.85168566|128.6567622
대림주유소|35.8201309|128.6349431
대봉교주유소|35.85410708|128.6154079
대성주유소|35.84654028|128.6145633
대아빌딩|35.85841378|128.6398219
대명주유소|35.80837886|128.6209301
능인중학교|35.83210901|128.6325585
담티역|35.8749844|128.6481904
(주)담티주유소|35.85445322|128.6555269
대성산업㈜대경주유소|35.8399727|128.7089087
대공원가스충전소|35.85330989|128.6246692
대공원시장|35.8576894|128.6351669
대공원역|35.8419183|128.680968
대구개인택시조합제1충전소|35.85096176|128.613588
대구경동초등학교|35.85220526|128.6393816
대구고등법원|35.86334345|128.6290409
대구고등지방검찰청|35.86334345|128.6290409
대구고용센터|35.86534728|128.6274428
대구과학고등학교|35.84468027|128.6254893
대구창의융합교육원|35.8450962|128.6271225
대구광역시교통연수원|35.83047264|128.6304969
대구광역시보건환경연구원|35.83041714|128.6321255
대구남산고등학교|35.85813446|128.6090132
동부중학교|35.87251398|128.6442065
매호초등학교|35.84150307|128.7121173
대구문화방송M.B.C|35.86605026|128.6287908
대구미술관(전시동)|35.82702838|128.674339
대구범일중학교|35.82112689|128.6447011
대구스타디움 간이화장실(1)|35.83166106|128.6873219
대구스타디움 간이화장실(2)|35.83166106|128.6873219
대구스타디움(보조경기장)|35.83166106|128.6873219
대구스타디움(수변건물)|35.83166106|128.6873219
경신중학교|35.8554457|128.6375894
고산119안전센터|35.8402045|128.7044795
고산1동주민센터|35.83709653|128.7123987
고산2동주민센터|35.8434756|128.695184
고산3동주민센터|35.84413609|128.706578
고산건강생활지원센터|35.83699223|128.7128266
고산도서관|35.83790388|128.7106321
고산역|35.84373085|128.6902712
고산중학교|35.84528653|128.6986691
고산지구대|35.84383457|128.7065117
고산초등학교|35.84395474|128.6931514
골드타워|35.85842411|128.6344841
관계지어린이공원|35.81442027|128.6397889
광덕빌딩|35.85468561|128.6150803
교보생명빌딩|35.8593174|128.617034
한국교직원공제회 대구지부|35.86003987|128.6271794
구민운동장|35.85025577|128.6298035
국립대구박물관|35.84557624|128.638342
그린주유소|35.8451847|128.6755495
근토빌딩|35.83943698|128.7048344
기분좋은주유소|35.84732038|128.6100637
기업은행|35.85846804|128.6278535
노변공원|35.83875924|128.6989727
노변주유소|35.84158466|128.7004366
노변중학교|35.83808768|128.694351
노변초등학교|35.83774591|128.6976275
능인고등학교|35.83210901|128.6325585
LG U+ 황금사옥|35.84146405|128.6236344
동명M타워|35.83960963|128.7076586
NH농협은행|35.84688729|128.6123666
SK네트웍스㈜제일주유소|35.82064746|128.6409541
가든주유소|35.85454165|128.6390711
경북고등학교|35.84474548|128.6416364
케이케이㈜중앙2주유소|35.87410505|128.6416426
경상제일주유소|35.8669603|128.6360594
경신고등학교|35.8554457|128.6375894
개인택시조합충전소|35.91003645|128.6253366
검단동 행정복지센터|35.9134756|128.6272256
의료법인 배성의료재단|35.9081123|128.6222964
시민운동장|35.88301806|128.5861564
KT 북대구 고객서비스센터|35.8818763|128.5814518
대흥빌딩(기아자동차 영업소)|35.884522|128.5820328
대우주유소|35.8821078|128.5813812
대구도시공사|35.883162|128.589317
고성동주민센터|35.8818455|128.5835861
칠곡IC주유소|35.94307205|128.542094
신락어린이공원|35.944643|128.544648
관음동주민센터|35.9442414|128.5473329
송암어린이공원|35.942983|128.547153
관음중학교|35.9410402|128.5464918
관음초등학교|35.93992099|128.5471123
가산어린이공원|35.937288|128.544842
북구어울아트센터|35.9358662|128.5451274
관음근린공원|35.9358662|128.5451274
읍내어린이공원|35.940601|128.549664
관남초등학교|35.93683759|128.5477879
대구은행칠곡점|35.9360357|128.548534
KB국민은행대구강북지점|35.934991|128.5483841
성동병원|35.9408624|128.5475368
선린종합사회복지관|35.9378261|128.5455021
함지고등학교|35.92786686|128.5605141
한국농촌공사경북지역본부|35.9313747|128.557711
운암공원|35.9273826|128.5522212
해당화어린이공원|35.927013|128.552728
구암고등학교|35.92623868|128.5532052
다람쥐어린이공원|35.926163|128.555293
구암근린공원|35.928436|128.556816
구암초등학교|35.92814416|128.5577585
구암중학교|35.92757545|128.5571588
진달래어린이공원|35.930707|128.558826
구암어린이공원|35.926424|128.559251
도시철도3호선 칠곡운암역|35.93147674|128.5545486
도시철도3호선 구암역|35.92566312|128.5503266
동림빌딩|35.9437107|128.5646168
강북경찰서|35.94345181|128.5653064
북대구우체국|35.94153605|128.5657163
함지근린공원|35.942288|128.568728
강북초등학교|35.9408343|128.566782
운암고등학교|35.93884743|128.563704
강북중학교|35.93870274|128.5648981
동평중학교|35.9371652|128.5635118
구암동주민센터|35.9389234|128.5660435
대구운암초등학교|35.93570075|128.5656283
운암중학교|35.93284009|128.565301
구암주유소|35.94062533|128.5703126
GS칼텍스㈜운암지주유소|35.9320596|128.5662961
학남초등학교|35.9462397|128.5662836
학남고등학교|35.9462037|128.5691923
학남중학교|35.94552955|128.5704372
SK네트웍스 ㈜중앙주유소|35.8918624|128.6245038
북구구민운동장|35.9442628|128.573891
도남초등학교|35.94865981|128.577122
칠곡제일주유소|35.9473369|128.5727364
금호근린공원|35.8958224|128.520309
주식회사금호지구충전소|35.89537299|128.5256319
은성빌딩|35.8880459|128.582319
노원1가 새마을금고|35.8898383|128.5777151
공명주유소|35.88930428|128.5807004
노원동주민센터|35.8901384|128.5762308
해바라기어린이공원|35.888791|128.574066
K마디병원|35.88820396|128.5739129
대동주유소|35.88824562|128.5732066
강병원|35.89373123|128.5699863
팔달어린이공원|35.89279369|128.5697987
한국안광학산업진흥원|35.89937439|128.5785667
3공단주유소|35.89855166|128.5783812
노원셀프주유소|35.89564153|128.5718822
도시철도3호선 만평역|35.88983657|128.5610742
여성회관|35.8943257|128.555015
대기주유소|35.8912501|128.554901
흥구석유(주)원대주유소|35.89086859|128.558011
서민주유소|35.89045965|128.5598815
서대구터미널|35.8902418|128.5614324
만평주유소|35.89076541|128.5635598
원대새마을금고|35.889524|128.5650995
팔달공영주차장|35.89068676|128.5659881
M병원|35.8894235|128.5661958
팔달신시장 공중화장실(고객쉼터)|35.8895161|128.5668303
덕영주유소|35.922413|128.539631
도시철도3호선 팔달시장역|35.88887392|128.5678858
팔달신시장(A)|35.8909297|128.5663818
산동주유소|35.89155443|128.5660515
SK㈜해바라기주유소|35.8831123|128.60807
신암초등학교|35.88376396|128.6116222
동대구시장|35.88108006|128.6090919
동로주유소|35.88347003|128.6026115
대현동주민센터|35.88218727|128.6058146
동변초등학교|35.91913074|128.6041638
동변중학교|35.91925557|128.6056109
도시철도3호선 동천역|35.937766|128.556626
참물샘공원|35.93397403|128.556269
동천빌딩|35.9319874|128.557514
북부초등학교|35.9334558|128.559215
들말공원|35.933212|128.559077
국립농산물품질관리원|35.94439653|128.559163
강북빌딩|35.942747|128.563134
동평초등학교|35.93900093|128.5608217
동천동 주민센터|35.937374|128.5581853
함지초등학교|35.93475358|128.5578616
동천근린공원|35.935133|128.560642
재우빌딩(국자감학원)|35.9437359|128.5578791
플러스빌딩|35.9429839|128.5577441
SK셀프주유소 동천점|35.9415333|128.5576234
도시철도3호선 팔거역|35.94407925|128.5583638
㈜홈플러스 칠곡점|35.944872|128.5559605
㈜마인드온|35.9431586|128.5556505
경상북도농업기술원|35.95811591|128.5608165
도시철도3호선 칠곡경대병원역|35.95843804|128.5598829
대구체육고등학교|35.95879779|128.5577175
농업인회관|35.95646399|128.5586781
경상북도공무원교육원|35.95673553|128.5571982
대우골프클럽|35.9549684|128.556232
매천초등학교|35.91332533|128.5410377
매천콩이주유소|35.91158724|128.5422136
구도일주유소 대구|35.9108909|128.5420045
칠곡매천주유소|35.91038033|128.5418594
팔달충전소|35.90752673|128.5482314
SK네트웍스대경주유소|35.90629712|128.5477068
매천근린공원|35.906221|128.540574
농수산도매시장|35.90171139|128.5421593
강북컨벤션웨딩|35.9013856|128.5465913
매천주유소|35.90474974|128.5466665
도시철도3호선 매천시장역|35.90442956|128.5457786
도시철도3호선 매천역|35.91276182|128.5433752
관문초등학교|35.90869975|128.5461085
경상고등학교|35.90189838|128.6215328
한영주유소|35.89951958|128.6231191
들샘어린이공원|35.8965204|128.6169096
대구북중학교|35.89736782|128.6204392
복현초등학교|35.8976053|128.6215383
복현중학교|35.89398379|128.6262576
경진중학교|35.89394285|128.6279489
영진고등학교|35.89461348|128.6220753
문성초등학교|35.9058108|128.6203544
삼성빌딩|35.89341139|128.6208786
대구개인택시제3충전소|35.89725389|128.6149835
기분좋은주유소|35.894396|128.618425
경진초등학교|35.89202775|128.6170922
복현 1동 주민센터|35.8937601|128.6185918
대구안식원|35.90384538|128.6228264
새복현빌딩|35.892525|128.6212594
대불노인복지회관|35.8986673|128.6169196
뉴라이프병원|35.8983513|128.6166701
오거리주유소|35.89889693|128.6155662
㈜다이시스|35.8992402|128.6155726
성화중학교|35.90323114|128.6202664
성화여자고등학교|35.90323114|128.6202664
성부정신수양원|35.90357247|128.6216443
성광고등학교|35.90757154|128.6242273
성광중학교|35.90757154|128.6242273
복현2동 주민센터|35.8953539|128.6254941
한강근린공원|35.898678|128.513604
북구청소년회관|35.905774|128.6160608
산격종합시장|35.89863538|128.610351
대구은행 복현지점|35.898791|128.611674
대동초등학교|35.89736822|128.6118404
신세계여성병원|35.89784189|128.6136088
대구박병원|35.89682125|128.6136501
경북대학교|35.88909849|128.6143217
대현주유소|35.88884422|128.6034374
산격3동주민센터|35.89352623|128.6083117
산격초등학교|35.89455033|128.6063965
금강주유소|35.8908793|128.6057066
SG주유소|35.8946655|128.605101
대구체육관|35.8937914|128.6030093
대구시청 별관|35.8926195|128.6014592
경북지방경찰청|35.8926195|128.6014592
대구시청 별관|35.8926195|128.6014592
대구시청 별관|35.892627|128.6014592
산격4동주민센터|35.8922329|128.6042817
현대오일뱅크(주)대구현대주유소|35.91020751|128.607546
대구우편집중국|35.910326|128.614677
신기근린공원|35.907327|128.608926
대구시전자관사업협동조합|35.90720476|128.6070281
대구종합유통단지 전자도매상가|35.90545858|128.6049821
대구기계공구상협동조합|35.9049675|128.6063944
㈜KT산격지점|35.902915|128.6042361
전기재료관|35.9050616|128.6077122
전기조명관|35.905663|128.608293
대구종합유통단지섬유제품관|35.906233|128.6096678
NC아울렛|35.9052073|128.6103687
패션디자인개발자원센터|35.9061485|128.6117408
㈜엑스코|35.9070695|128.6130836
경북대구한우협동조합|35.908104|128.6156959
㈜퍼시스대구센터|35.909001|128.6147685
㈜보고파워|35.909707|128.6160438
㈜동원약품|35.90888446|128.6166864
코스트코-코리아|35.906389|128.618136
현대오일뱅크(주)유통단지주유소|35.90579147|128.6180457
북대구초등학교|35.90328558|128.6095652
대불근린공원|35.914484|128.606954
Sk네트웍스㈜유통단지주유소|35.90055615|128.6152398
산격중학교|35.90230162|128.6087063
산격2동주민센터|35.90173199|128.609253
북대구IC주유소|35.9022068|128.6063442
상수도시설관리사무소|35.90157466|128.6040398
SK네트웍스㈜신흥주유소|35.90260738|128.6006708
남강주택건물|35.9027042|128.6028595
호수에멱감으로|35.90390307|128.6024365
흥구석유㈜산격주유소|35.902386|128.5979762
챔피언주유소|35.90317944|128.5966822
산격종합사회복지관|35.9010957|128.5958916
산격1동주민센터|35.9003895|128.596892
Sk네트웍스㈜맘모스주유소|35.90217341|128.5958955
태왕주유소|35.9018623|128.5946089
북대구 LPG 충전소|35.901672|128.5940247
대산초등학교|35.89611402|128.5931912
에쓰오일 산격주유소|35.8944365|128.5940427
GS칼텍스㈜선진주유소|35.8952095|128.5942889
연암근린공원|35.898651|128.602724
현대오일뱅크 ㈜동서변주유소|35.91419979|128.5995667
까치주유소|35.93062954|128.5995548
SK네트웍스㈜거산주유소|35.92897585|128.5984363
유니버시아드레포츠센터|35.9279702|128.5979559
서변중학교|35.926352|128.595661
서변근린공원|35.921302|128.595371
서변초등학교|35.92075558|128.5950281
무태조야동 주민센터|35.9213327|128.5970475
성북초등학교|35.92641014|128.5942114
칠곡시장 공중화장실|35.942305|128.551625
교동초등학교|35.9447886|128.549436
교동중학교|35.94395188|128.5495491
현대오일뱅크㈜칠곡주유소|35.93855791|128.5499491
대구삼선병원|35.9356405|128.549232
칠곡카톨릭병원|35.9349066|128.5492967
동아백화점강북점본관|35.9330097|128.5490165
대천어린이공원|35.93916222|128.5552349
대천초등학교|35.93721038|128.554364
현대대왕오일뱅크|35.9506329|128.5533551
한국주유소|35.9518399|128.5531285
소원주유소|35.95275658|128.5535998
대구개인택시조합 제4충전소|35.9605768|128.552218
제형주유소|35.9534758|128.5546774
칠곡중학교|35.9481754|128.5507442
하마주유소|35.94940267|128.552005
읍내동주민센터|35.94581301|128.5505739
칠곡초등학교|35.94517034|128.5517715
구수산도서관|35.9387852|128.5524038
조야초등학교|35.9132267|128.5771206
능금시장|35.87714898|128.6019704
칠성시장|35.8763191|128.6052466
대구청과시장|35.87702934|128.6039645
삼성시장|35.87781729|128.6034808
원시장|35.87542332|128.603251
경명시장|35.8757382|128.6040838
대구오페라하우스|35.8834639|128.5922301
칠성고등학교|35.88060752|128.5912639
㈜스펙트럼시티|35.88522649|128.5897883
신세계이마트 칠성점|35.88522649|128.5897883
지하철 칠성시장역|35.87612582|128.6051696
현운빌딩|35.87840228|128.595011
리치프라자|35.8857914|128.5860978
(주)대구은행|35.88445426|128.5882957
한성병원|35.8762551|128.597886
대구꽃백화점|35.876907|128.5980105
북구자원봉사센터|35.8772927|128.5917892
북부소방서|35.87800191|128.5923197
롯데백화점|35.8758942|128.5961298
대구역|35.8758942|128.5961298
지하철 대구역|35.87634361|128.5972152
대성시장|35.87644946|128.6009707
통일로주유소|35.8800199|128.5962542
홈플러스 대구점|35.8814725|128.5957711
옥산초등학교|35.88089463|128.5978735
칠성동주민센터|35.879228|128.600019
경명여자중학교|35.88072859|128.5984327
경명여자고등학교|35.88072859|128.5984327
LG전자베스트샵 침산점|35.8829555|128.5905945
대성산업(주)대성주유소|35.8820362|128.5900788
대성산업㈜대구석유가스사업부|35.8813688|128.5899238
에코주유소|35.89962075|128.5809587
SK직영강남고속주유소|35.90001368|128.5836911
오페라주유소|35.8846168|128.5975673
침산공원(A)|35.896657|128.584962
침산공원(B)|35.897221|128.5848591
국민건강공단 대구북부지사|35.887261|128.597518
SK네트웍스㈜경대주유소|35.8865315|128.5976334
침산1동주민센터|35.8903277|128.581354
칠성초등학교|35.88703349|128.5932396
화성투엠빌딩|35.8892511|128.5915207
침산중학교|35.89009204|128.5884725
기독교방송국|35.8874484|128.5984509
대구일중학교|35.88627361|128.584197
대구달산초등학교|35.88769872|128.5851441
대구지방국세청 정보화센터|35.8878718|128.5834626
북대구세무서|35.88830808|128.5835377
화성파크드림갤러리|35.8888087|128.5836096
연우빌딩|35.88850169|128.5844396
북부도서관|35.8851564|128.5838419
북부경찰서|35.88645267|128.5826458
대구광역시북구청|35.88593702|128.5823875
한국전력공사|35.88717773|128.583152
침산초등학교|35.8911138|128.5850731
보건복지센터|35.8918696|128.588898
침산3동주민센터|35.8920297|128.5893493
침산2동주민센터|35.887229|128.596993
경북광유㈜침산주유소|35.90126903|128.5877123
경상여자고등학교|35.90054277|128.5878231
㈜한신가스충전소|35.90129092|128.5846913
샛별어린이공원|35.927928|128.549842
태암초등학교|35.9230319|128.5505023
매천고등학교|35.91159467|128.5472384
매천중학교|35.91048332|128.5473275
대일종합에너지오일뱅크 태전점|35.92205946|128.5460641
태전중앙시장|35.9216539|128.5449086
태전1동주민센터|35.92413031|128.5434011
태현초등학교|35.92816693|128.5406343
대구과학대학교|35.92925314|128.5427827
SK네트웍스 직영 한일주유소|35.92382664|128.5465505
송림스포츠프라자|35.92335193|128.5464659
문요양병원|35.91536607|128.547934
태전빌딩|35.9186021|128.5480682
기분좋은SELF주유소|35.9215594|128.5471355
태전2동주민센터|35.9214822|128.5487684
대구보건대학교|35.92684373|128.5440255
대구병원|35.9132674|128.5487689
지에스칼텍스㈜삼광주유소|35.9113349|128.5489222
태백산self오일뱅크|35.9100036|128.548719
패밀리주유소|35.90872927|128.5486182
도시철도3호선 태전역|35.91967055|128.5473913
태전근린공원(A)|35.9316356|128.5461611
태전초등학교|35.9302356|128.5460296
네오시티플라자|35.9323081|128.548875
KT 북대구지사|35.931636|128.5530326
관천중학교|35.93116294|128.5526146
관천초등학교|35.9305641|128.5520482
강북고등학교|35.92972736|128.541223
현대오일뱅크 칠곡IC충전소|35.92345861|128.5381632
영송여자고등학교|35.9290165|128.541843
오일월드주유소|35.89878529|128.5476718
팔달초등학교|35.8979308|128.5449083
팔달중학교|35.8989473|128.5449144
도시철도3호선 팔달역|35.89782463|128.5467222
강북주유소|35.95050269|128.5699663
육일주유소|35.95823655|128.5662189
도시철도3호선 학정역|35.951554|128.5591896
학정주유소|35.9512726|128.5698354
대구학정초등학교|35.94822675|128.568978
반월당역(1호선)|35.86442069|128.5933403
2.28기념 중앙공원|35.8692142|128.5971828
반월당역(2호선)|35.86442069|128.5933403
갑을빌딩|35.8704103|128.5869856
경구중학교|35.85769247|128.5834111
경대병원역(2호선)|35.86319903|128.602801
경북공업고등학교|35.85769247|128.5834111
케이케이(주) 유성주유소|35.85560652|128.6041376
케이케이(주) 중앙주유소|35.86954045|128.6006658
경북대학 사범대학 부설중학교|35.86253967|128.6006179
경북대학교 동인캠퍼스(의과대)|35.8678394|128.6040547
경북대학교 사범대학 부설고등학교|35.86253967|128.6006179
경북대학교 치과대학|35.864227|128.6016704
경북대학교 치과병원|35.86389445|128.6013992
경북대학교사범대학 부설초등학교|35.86358293|128.5980661
경북대학병원|35.8662355|128.6043147
경상감영공원|35.87267548|128.5916854
성신직업전문학교|35.86921438|128.5901438
계성빌딩|35.86845257|128.5818337
계성중학교|35.86793508|128.5802492
곽병원|35.87083012|128.5886768
교동시장 공중화장실|35.87286661|128.5969948
교보생명 동성로사옥|35.87059708|128.5948168
교원빌딩|35.86567687|128.5946138
동인느티나무도서관|35.87131912|128.6072027
국민은행 남산동지점|35.86165054|128.5922695
국민은행 대구지점|35.86887363|128.593412
국제빌딩|35.86842904|128.5958121
국채보상운동기념공원|35.86833404|128.6034536
국채보상운동기념관|35.86833404|128.6034536
금복개발 ㈜덕산지점|35.86579667|128.5940832
금복개발 ㈜삼덕지점|35.86344252|128.6034442
남문치안센터|35.8586919|128.5885909
대구중부소방서(남산119안전센터)|35.86257958|128.5752468
남산1동 주민센터|35.8593522|128.5904366
남산2동 주민센터|35.86408839|128.5895749
남산3동 행정복지센터|35.85991692|128.5855579
남산4동 행정복지센터|35.85822865|128.5805741
남산병원|35.86148489|128.58191
남산지구대|35.86606266|128.5876628
달성공원|35.87339884|128.5759201
달성빌딩|35.87334425|128.5806224
대구가톨릭대학교|35.86133303|128.5875131
대구경북여자고등학교|35.85842696|128.5922019
구.대구경북지방 병무청|35.87132335|128.5922606
대구계성초등학교|35.86607562|128.5815807
대구광역시 중구청|35.86932522|128.6061572
대구광역시 청사|35.87154733|128.60122
대구광역시립중앙도서관|35.86844014|128.6017503
대구콘서트하우스|35.8760646|128.5936973
대구근대역사관|35.87179591|128.5911603
대구남산4동우체국|35.86377379|128.5820209
대구남산동우체국|35.85734341|128.590192
대구남산초등학교|35.86324744|128.5827598
대구달성동우체국|35.87664454|128.5783277
대구대봉동우체국|35.85860065|128.601647
대성에너지㈜남산동사옥|35.85785155|128.580266
대구동덕초등학교|35.86473435|128.6046499
대구동부교육지원청|35.86408949|128.5911771
대구동인동우체국|35.86968078|128.603556
대구동인초등학교|35.86808366|128.6095066
대구명덕초등학교|35.85753902|128.589027
대구삼덕동우체국|35.8660409|128.6096203
대구삼덕초등학교|35.86356446|128.6078431
대구수창초등학교|35.87424935|128.583444
대구시청 작은도서관|35.87158732|128.6004829
대구시티센터|35.87094134|128.5981079
대구역전우체국|35.87484668|128.5976433
대구우체국|35.87143012|128.5918219
대구은행 북성로지점|35.87401351|128.5874227
대구은행 중앙로지점|35.87121512|128.5937805
대구제일중학교|35.86154603|128.5970936
대구종로초등학교|35.87249623|128.5897066
대구초등학교|35.8640369|128.5953696
대백프라자|35.85571524|128.6063973
대봉1동 주민센터|35.86154491|128.6043818
대봉2동 주민센터|35.85876069|128.5993685
대봉치안센터|35.8603136|128.600519
대성빌딩|35.85759705|128.5807134
미래에셋증권(대성빌딩)|35.86466939|128.5960236
대명주유소|35.85822521|128.5794226
대신119안전센터|35.86890863|128.580774
대신동 주민센터|35.86557684|128.5763426
으뜸병원|35.87006531|128.5893568
대신지하상가|35.8705234|128.5810535
서문치안센터|35.86959766|128.5793617
대우빌딩|35.87470777|128.5952684
대한내과|35.85989636|128.591581
한화생명빌딩|35.86936059|128.6005768
대한적십자사 경북지사|35.86487855|128.58835
대한적십자사혈액원|35.87512933|128.5920223
대현프리몰|35.87083862|128.5951962
더락 멀티플렉스|35.87019011|128.5969067
동산빌딩|35.8659423|128.5827787
동산상가|35.86894887|128.5817156
동성로 타워빌딩|35.86656986|128.5944814
동성프라자건물|35.86938624|128.5950871
동아백화점 본점|35.87261357|128.5968936
동아백화점 쇼핑점|35.86632147|128.5918504
동양금융센터|35.86538292|128.592087
동인동 행정복지센터|35.86791133|128.6091367
동인치안센터|35.87061158|128.6045285
동화빌딩(MS재건병원)|35.87188056|128.6048935
드림저축은행|35.87023078|128.6013918
로얄프레지던트 빌딩|35.8707465|128.5937659
메리츠화재 대구사옥|35.87100498|128.5920846
메트로센터상가(B2)|35.86442069|128.5933403
메트로프라자|35.86446924|128.5980972
명덕역(1호선)|35.8579883|128.5911518
몰디브코리아|35.86800411|128.5960597
미도빌딩|35.87068045|128.5943634
미르치과병원|35.86489322|128.600094
미주빌딩|35.87838379|128.5814179
공평빌딩|35.86799747|128.5981525
반월 메디컬센터 빌딩|35.865082|128.5927934
반월타워|35.86459179|128.5989352
번개시장|35.87521676|128.5974539
보람빌딩|35.85792674|128.5906996
봉산문화회관|35.86339742|128.5965568
㈜태산이앤엘 감영셀프주유소|35.875506|128.5917194
분홍빛으로 병원|35.8671813|128.6033993
삼덕119안전센터|35.86718777|128.5996746
삼덕동 행정복지센터|35.86552382|128.6089412
동덕지구대|35.86808032|128.6060263
삼성빌딩|35.86572995|128.6002393
삼성생명빌딩(덕산지점)|35.86631676|128.5927981
삼영빌딩|35.8654827|128.5954984
삼희빌딩|35.86368171|128.5988784
상도빌딩|35.87379869|128.5998574
서남빌딩|35.87026873|128.5809058
서문로119안전센터|35.87157637|128.5899848
서문시장 1지구|35.86939323|128.579824
