name|latitude|longitude|management|phone_number|adress|operate_time|type|uni_sex
대구운암초등학교|35.93570075|128.56562830000001|대구광역시 교육청|-|대구광역시 북구 대천로 148 (구암동)|-|공중화장실|N
홈플러스 대구점|35.8814725|128.59577109999998|홈플러스|-|대구광역시 북구 중앙대로 543 (칠성동2가)|-|공중화장실|N
옥산초등학교|35.88089463|128.59787350000002|대구광역시 교육청|-|대구광역시 북구 칠성시장로23길 55 (칠성동2가)|-|공중화장실|N
칠성동주민센터|35.879228000000005|128.600019|대구광역시 북구청|-|대구광역시 북구 칠성로19길 4 (칠성동2가)|업무중|공중화장실|N
경명여자중학교|35.88072859|128.59843270000002|대구광역시 교육청|-|대구광역시 북구 칠성로17길 18 (칠성동2가)|-|공중화장실|N
경명여자고등학교|35.88072859|128.59843270000002|대구광역시 교육청|-|대구광역시 북구 칠성로17길 18 (칠성동2가)|-|공중화장실|N
LG전자베스트샵 침산점|35.8829555|128.5905945|LG전자|-|대구광역시 북구 침산로 76 (칠성동2가)|-|공중화장실|N
대성산업(주)대성주유소|35.8820362|128.5900788|대성산업㈜|-|대구광역시 북구 침산로 62 (칠성동2가)|-|공중화장실|N
대성산업㈜대구석유가스사업부|35.8813688|128.58992379999998|대성산업㈜|-|대구광역시 북구 침산로 56 (칠성동2가)|-|공중화장실|N
에코주유소|35.89962075|128.5809587|개인|-|대구광역시 북구 노원로 190 (침산동)|-|공중화장실|N
SK직영강남고속주유소|35.90001368|128.58369109999998|개인|-|대구광역시 북구 노원로 216 (침산동)|-|공중화장실|Y
오페라주유소|35.884616799999996|128.5975673|개인|-|대구광역시 북구 중앙대로 580 (침산동)|-|공중화장실|Y
침산공원(A)|35.896657|128.58496200000002|대구광역시 북구청|-|-|연중무휴|공중화장실|N
침산공원(B)|35.897221|128.5848591|대구광역시 북구청|-|대구광역시 북구 침산남로9길 118 (침산동)|연중무휴|공중화장실|N
국민건강공단 대구북부지사|35.887260999999995|128.59751799999998|국민건강공단|-|대구광역시 북구 침산남로 199 (침산동)|업무중|공중화장실|N
SK네트웍스㈜경대주유소|35.8865315|128.5976334|개인|-|대구광역시 북구 중앙대로 601 (침산동)|-|공중화장실|N
침산1동주민센터|35.8903277|128.581354|대구광역시 북구청|-|대구광역시 북구 침산남로13길 16 (침산동)|업무중|공중화장실|N
칠성초등학교|35.88703349|128.5932396|대구광역시 교육청|-|대구광역시 북구 침산남로32길 17 (침산동)|-|공중화장실|N
화성투엠빌딩|35.8892511|128.5915207|개인|-|대구광역시 북구 침산로 144 (침산동)|영업시간중|공중화장실|N
침산중학교|35.89009204|128.58847250000002|대구광역시 교육청|-|대구광역시 북구 침산남로 121 (침산동)|-|공중화장실|N
기독교방송국|35.8874484|128.59845090000002|기독교방송|-|대구광역시 북구 중앙대로 612 (침산동)|-|공중화장실|N
통일로주유소|35.880556|128.596661|개인|-|대구광역시 북구 중앙대로 527 (칠성동2가)|-|공중화장실|N
정다운주유소|35.80956661|128.6191886|정다운주유소|053-766-8884|대구광역시 수성구 파동로 59 (파동)|06:00~23:00|공중화장실|N
두산초등학교|35.83259685|128.6260882|두산초등학교|053-232-3598|대구광역시 수성구 동대구로6길 31 (지산동)|08:00~17:00|공중화장실|N
대자연주유소|35.80837886|128.6209301|대자연주유소|053-768-3200|대구광역시 수성구 파동로 42 (파동)|06:00~23:00|공중화장실|N
수성중학교|35.82587242|128.6072064|수성중학교|053-232-6312|대구광역시 수성구 파동로51길 26-9 (파동)|09:00~18:00|공중화장실|N
파동초등학교|35.82468309|128.6077313|파동초등학교|053-232-3090|대구광역시 수성구 파동로51길 34 (파동)|08:00~17:00|공중화장실|N
대구장애인종합복지관|35.82695723|128.6069494|대구장애인종합복지관|053-763-1011|대구광역시 수성구 파동로51길 26-17 (파동)|08:30~18:00|개방화장실|N
성동초등학교|35.84090429999999|128.63228279999998|성동초등학교|053-770-0502|대구광역시 수성구 청수로45길 27 (황금동)|09:00~18:00|공중화장실|N
패션디자인개발자원센터|35.9061485|128.6117408|대구광역시|-|대구광역시 북구 유통단지로14길 17 (산격동)|업무중|공중화장실|N
한성병원|35.8762551|128.59788600000002|병원장|-|대구광역시 북구 칠성남로30길 28 (칠성동2가)|업무중|공중화장실|N
대구꽃백화점|35.876907|128.5980105|상인회|-|대구광역시 북구 칠성남로 164 (칠성동2가)|업무중|공중화장실|N
북구자원봉사센터|35.877292700000005|128.5917892|대구광역시 북구청|-|대구광역시 북구 칠성남로26길 27 (칠성동2가)|업무중|공중화장실|N
북부소방서|35.87800191|128.5923197|대구광역시 시청|-|대구광역시 북구 칠성남로 112 (칠성동2가)|업무중|공중화장실|N
롯데백화점|35.875894200000005|128.5961298|롯데백화점|-|대구광역시 북구 태평로 161 (칠성동2가)|업무중|공중화장실|N
대구역|35.875894200000005|128.5961298|한국철도공사대구본부|-|대구광역시 북구 태평로 161 (칠성동2가)|연중무휴|공중화장실|N
지하철 대구역|35.87634361|128.5972152|대구도시철도공사|-|대구광역시 북구 칠성남로30길 지하 24 (칠성동2가)|연중무휴|공중화장실|N
대성시장|35.87644946|128.6009707|상인회|-|대구광역시 북구 공평로 135 (칠성동2가)|연중무휴|공중화장실|N
범물근린공원|35.81840498|128.64335970000002|범물근린공원|053-666-2835|대구광역시 수성구 지범로 232|24시간|개방화장실|N
대명11동 치안센터 화장실|35.83961916|128.5635867|대명11동 치안센터|053-627-0112|대구광역시 남구 대명로 55 (대명동,1593-20)|8시간|공중화장실|N
영선시장|35.85249423|128.5929864|영선시장|053-664-2194|대구광역시 남구 중앙대로48길 39|8시간|개방화장실|N
중앙로관광버스전용주차장|35.87389536|128.5949301|중구청 교통과|-|대구광역시 중구 중앙대로 456-3|08:00~24:00|개방화장실|N
반월당클래시아 2차|35.86472841|128.5948698|개인|-|대구광역시 중구 명륜로23길 106|09:00~20:00|공중화장실|N
약령시서문공영주차장|35.867722799999996|128.5904892|대구시설공단|-|대구광역시 중구 남성로 33|09:00~18:00|개방화장실|Y
북성로 공중화장실|35.87370397|128.5896908|중구청 도시재생과|-|대구광역시 중구 북성로 66-5|05:20~24:00|개방화장실|N
대구 메디스퀘어 클래시아|35.86528491|128.5925957|개인|-|대구광역시 중구 달구벌대로 2094|월~금 09:00~18:00/공휴일 제외|공중화장실|N
늘열린성모병원|35.86210036|128.5995033|개인|-|대구광역시 중구 이천로 236|09:00~18:00|개방화장실|N
달성토성 커뮤니티센터|35.8730164|128.5797877|중구청 건축주택과|-|대구광역시 중구 달성공원로 28|09:00~18:00|개방화장실|N
순종황제 어가길 쉼터|35.87383443|128.5853394|중구청 도시재생과|-|대구광역시 중구 북성로 27-2|09:00~18:00|개방화장실|N
남산동커뮤니티센터|35.85983364|128.589675|중구청 도시재생과|-|대구광역시 중구 중앙대로 289-36|09:00~18:00|개방화장실|N
에코한방웰빙체험관|35.86793848|128.58928229999998|중구청 도심활성화지원단|-|대구광역시 중구 남성로 24|09:00~18:00/공휴일 제외|개방화장실|N
향촌수제화센터|35.87285609|128.5918437|중구청 도심활성화지원단|-|대구광역시 중구 서성로14길 78|10:00~22:00|개방화장실|N
계산예가 공중화장실|35.86720633|128.5878706|중구청 관광자원과|-|대구광역시 중구 서성로 6-1|10:00~18:00|개방화장실|N
센트럴시티 오피스텔|35.86982968|128.5877682|개인|-|대구광역시 중구 국채보상로 522|10:00~18:00/명절 당일 휴무|공중화장실|N
김광석길 공중화장실|35.86116116|128.6072136|중구청 관광자원과|-|대구광역시 중구 달구벌대로450길 16-3|09:00~18:00|개방화장실|N
김광석 스토리하우스|35.85901498|128.6056361|중구청 관광자원과|-|대구광역시 중구 동덕로8길 14-3|2,3층 8:00~16:30/1층 장애인화장실 24시간|개방화장실|N
삼덕마루|35.86463999|128.60904509999997|삼덕동 주민센터|-|대구광역시 중구 동덕로26길 103|10:00~18:00/매주 월,명절 당일 휴관|개방화장실|N
수창공원|35.87598014|128.5841072|중구청 도시재생과|-|대구광역시 중구 달성로26길 35|평일 09:00~18:00/토 14:00~18:00/일 휴무|개방화장실|N
수창청춘맨숀|35.87539194|128.58384740000002|시청 문화예술정책과|-|대구광역시 중구 달성로22길 27|09:00~18:00|개방화장실|N
남산어린이공원|35.85825204|128.5813272|중구청 도시재생과|-|대구광역시 중구 남산로1길 32|09:00~17:00/월 휴무|개방화장실|N
중구보건소 및 노인복지관|35.87790436|128.5833648|중구보건소|-|대구광역시 중구 태평로 45|24시간|개방화장실|N
북성로 역사전통문화마을 기술예술융합소|35.8733028|128.5926444|중구청 문화개발과|-|대구광역시 중구 서성로16길 92-1|평일 09:00~18:00|개방화장실|N
메디컬스타빌딩|35.86544691|128.5827086|개인|-|대구광역시 중구 달구벌대로 1999|09:00~18:00|공중화장실|N
메디컬빌딩|35.863997|128.6005709|개인|-|대구광역시 중구 달구벌대로 2167|09:00~18:00|공중화장실|N
누네안과병원(밝은빛하이눈사옥)|35.86375138|128.6019265|개인|-|대구광역시 중구 달구벌대로 2179|09:00~18:00|공중화장실|N
국채보상운동기념공원 공영주차장|35.86833404|128.6034536|대구시설공단|-|대구광역시 중구 국채보상로 670|09:00~18:00|개방화장실|N
교동공영주차장|35.87372488|128.59839499999998|중구청 교통과|-|대구광역시 중구 교동2길 11|24시간|공중화장실|N
김광석길 공영주차장|35.85930118|128.606415|중구청 교통과|-|대구광역시 중구 신천대로 677(대봉동)|08:00~22:00|공중화장실|N
흥국생명㈜ 대구사옥|35.8711717|128.5934479|개인|-|대구광역시 중구 국채보상로 573|09:00~18:00|공중화장실|N
흥국석유㈜ 동인주유소|35.87151175|128.6047619|개인|-|대구광역시 중구 동덕로38길 5|09:00~18:00|개방화장실|N
KT대구지사(신관)|35.86968078|128.603556|개인|-|대구광역시 중구 동덕로 167|24시간|공중화장실|N
케이티 에스테이트(본관)|35.86968078|128.603556|개인|-|대구광역시 중구 동덕로 167|09:00~18:00|공중화장실|N
LG유플러스 대구동인사옥|35.87127753|128.60473290000002|개인|-|대구광역시 중구 동덕로 186|09:00~18:00|공중화장실|N
MMC만경관|35.87096131|128.5904232|개인|-|대구광역시 중구 국채보상로 547|09:00~18:00|공중화장실|N
SC제일은행|35.87257376|128.5960719|개인|-|대구광역시 중구 경상감영길 155|09:00~18:00|공중화장실|N
SK텔레콤빌딩|35.86396883|128.60094579999998|개인|-|대구광역시 중구 달구벌대로 2171|09:00~17:30|공중화장실|N
달성공원주유소|35.87542073|128.5816412|개인|-|대구광역시 중구 달성로 115|09:00~18:00|개방화장실|N
서문시장2지구|35.86881524|128.5795331|서문시장2지구 상인회|-|대구광역시 중구 큰장로26길 25|07:00~22:00|개방화장실|N
푸른병원|35.87597039|128.5889961|개인|-|대구광역시 중구 태평로 102|09:00~18:00|공중화장실|N
향촌문화관|35.8734065|128.5941956|중구청 도심활성화지원단|-|대구광역시 중구 중앙대로 449|09:00~18:00|개방화장실|N
화성파크드림시티|35.87007647|128.60226640000002|개인|-|대구광역시 중구 국채보상로 655|09:00~18:00|공중화장실|N
남산역(3호선)|35.85668201|128.5832272|대구도시철도공사 남산역|-|대구광역시 중구 남산로 2|10:00~23:00|개방화장실|N
신남역(청라언덕역)(3호선)|35.86415968|128.582367|대구도시철도공사 3신남역|-|대구광역시 중구 남산로 80|05:20~24:00|개방화장실|N
서문시장역(3호선)|35.86979356|128.5822422|대구도시철도공사 서문시장역|-|대구광역시 중구 달성로 50|05:20~24:00|개방화장실|N
달성공원역(3호선)|35.87564391|128.5820858|대구도시철도공사 달성공원역|-|대구광역시 중구 달성로 116|05:20~24:00|개방화장실|N
협성고등학교|35.83809438|128.598108|협성고등학교|053-235-6166|대구광역시 남구 효서길 8(봉덕동)|8시간|공중화장실|N
흥국생명보험㈜|35.86602903|128.59451299999998|개인|-|대구광역시 중구 달구벌대로 2109-18|24시간|개방화장실|N
SK네트웍스㈜풍국주유소|35.87272385|128.6056502|개인|-|대구광역시 중구 태평로 257|09:00~18:00|개방화장실|N
비산1동 행정복지센터|35.881171200000004|128.5689696|대구광역시 서구청|-|대구광역시 서구 북비산로65길 18|09:00-18:00|개방화장실|N
비산119안전센터|35.880453700000004|128.57201609999998|비산119안전센터|-|대구광역시 서구 달서로 206|24시간|개방화장실|N
서구 구민건강증진센터|35.88016031|128.5724|대구광역시 서구청|-|대구광역시 서구 북비산로71길 7|09:00-18:00|개방화장실|N
이현119안전센터|35.86907881|128.5441394|이현119안전센터|-|대구광역시 서구 국채보상로 119|24시간|개방화장실|N
서부소방서|35.88187632|128.5543847|서부소방서|-|대구광역시 서구 달서천로 186|24시간|개방화장실|N
서부수도사업소|35.8651265|128.5487479|서부수도사업소|-|대구광역시 서구 국채보상로34길 48|09:00-18:00|개방화장실|N
한국염색기술연구소|35.88198993|128.5441819|한국염색기술연구소|-|대구광역시 서구 달서천로 92|09:00-18:00|개방화장실|N
한국섬유개발연구원|35.86820659|128.5460932|한국섬유개발연구원|-|대구광역시 서구 국채보상로 136|09:00-18:00|개방화장실|N
대구의료원|35.85967414|128.5385415|대구의료원|-|대구광역시 서구 평리로 157|24시간|개방화장실|N
한국전력 서대구지점|35.86983584|128.57054409999998|한국전력 서대구지점|-|대구광역시 서구 달서로 85|09:00-18:00|개방화장실|N
내당119안전센터|35.85943719|128.5552615|내당119안전센터|-|대구광역시 서구 서대구로3길 16|24시간|개방화장실|N
서구보건소|35.87232184|128.5592911|대구광역시 서구청|-|대구광역시 서구 국채보상로 257|09:00-18:00|개방화장실|N
공단역|35.89180916|128.55365749999999|대구도시철도공사|-|대구광역시 서구 팔달로 28|24시간|개방화장실|N
원대역|35.8877795|128.57439340000002|대구도시철도공사|-|대구광역시 서구 팔달로 224-2|24시간|개방화장실|N
북구청역|35.88398239|128.5813653|대구도시철도공사|-|대구광역시 서구 원대로 71|24시간|개방화장실|N
내당4동 행정복지센터|35.86074852|128.551417|대구광역시 서구청|-|대구광역시 서구 서대구로7길 46|09:00-18:00|개방화장실|N
서대구우체국|35.86680233|128.5551885|서대구우체국|-|대구광역시 서구 서대구로 97|09:00-18:00|개방화장실|N
비원건강증진센터|35.88688587|128.55861979999997|대구광역시 서구청|-|대구광역시 서구 서대구로 330|09:00-18:00|개방화장실|N
비원도서관|35.88609089|128.5692882|대구광역시 서구청|-|대구광역시 서구 달서천로61안길 10|09:00-18:00|개방화장실|N
원고개도서관|35.88187546|128.5707951|대구광역시 서구청|-|대구광역시 서구 달서로43길 12|09:00-18:00|개방화장실|N
청소년문화의집|35.86551370000001|128.5486315|대구광역시청|-|대구광역시 서구 국채보상로34길 48-1|09:00-18:00|개방화장실|N
비산4동 행정복지센터|35.86975414|128.5743068|대구광역시 서구청|-|대구광역시 서구 국채보상로78길 29-4|09:00-18:00|개방화장실|N
비산5동 행정복지센터|35.88632416|128.5696427|대구광역시 서구청|-|대구광역시 서구 달서천로65길 17|09:00-18:00|개방화장실|N
비산6동 행정복지센터|35.87630338|128.5690951|대구광역시 서구청|-|대구광역시 서구 문화로67길 3|09:00-18:00|개방화장실|N
비산7동 행정복지센터|35.88795717|128.55355559999998|대구광역시 서구청|-|대구광역시 서구 염색공단로5길 4|09:00-18:00|개방화장실|N
평리1동 행정복지센터|35.87559726|128.5632616|대구광역시 서구청|-|대구광역시 서구 문화로 280|09:00-18:00|개방화장실|N
평리2동 행정복지센터|35.8712199|128.563645|대구광역시 서구청|-|대구광역시 서구 국채보상로60길 6|09:00-18:00|개방화장실|N
평리3동 행정복지센터|35.87595437|128.5613021|대구광역시 서구청|-|대구광역시 서구 문화로 261|09:00-18:00|개방화장실|N
서구청|35.87232184|128.5592911|대구광역시 서구청|-|대구광역시 서구 국채보상로 257|24시간|개방화장실|N
평리4동 행정복지센터|35.86734019|128.5567977|대구광역시 서구청|-|대구광역시 서구 국채보상로46길 37-3|09:00-18:00|개방화장실|N
평리5동 행정복지센터|35.87377759|128.5487436|대구광역시 서구청|-|대구광역시 서구 서대구로37길 48|09:00-18:00|개방화장실|N
평리6동 행정복지센터|35.87519337|128.5482485|대구광역시 서구청|-|대구광역시 서구 당산로86길 13|09:00-18:00|개방화장실|N
원대동 행정복지센터|35.88680262|128.5743962|대구광역시 서구청|-|대구광역시 서구 달서로55길 5|09:00-18:00|개방화장실|N
상중이동 행정복지센터|35.86697716|128.54611359999998|대구광역시 서구청|-|대구광역시 서구 당산로 343|09:00-18:00|개방화장실|N
서구종합사회복지관|35.86104115|128.563321|대구광역시 서구청|-|대구광역시 서구 달구벌대로365길 3|09:00-18:00|개방화장실|N
서구장애인재활센터|35.86427185|128.57042990000002|대구광역시 서구청|-|대구광역시 서구 달서로5길 10|09:00-18:00|개방화장실|N
서구지역자활센터|35.86341985|128.56997909999998|대구광역시 서구청|-|대구광역시 서구 달구벌대로377길 12-10|09:00-18:00|개방화장실|N
서구노인복지회관|35.87555433|128.5640668|대구광역시 서구청|-|대구광역시 서구 문화로 288|09:00-18:00|개방화장실|N
서구청소년수련관|35.87362503|128.54547659999997|대구광역시 서구청|-|대구광역시 서구 문화로 122|06:00-21:00|개방화장실|N
서구제일사회복지관|35.885723600000006|128.57888400000002|대구광역시 서구청|-|대구광역시 서구 옥산로6길 9|09:00-18:00|개방화장실|N
평산지구대|35.87335246|128.5714816|대구서부경찰서|-|대구광역시 서구 달서로26길 1|24시간|개방화장실|N
이현지구대|35.8690451|128.5439572|대구서부경찰서|-|대구광역시 서구 국채보상로 117|24시간|개방화장실|N
대구서부경찰서|35.87182807|128.5584532|대구서부경찰서|-|대구광역시 서구 국채보상로 249|24시간|개방화장실|N
서도지구대|35.87099967|128.5595132|대구서부경찰서|-|대구광역시 서구 국채보상로 260|24시간|개방화장실|N
서문우체국|35.86794734|128.577123|서문우체국|-|대구광역시 서구 큰장로 101|09:00-18:00|개방화장실|N
비산우체국|35.87629697|128.570964|비산우체국|-|대구광역시 서구 달서로 157|09:00-18:00|개방화장실|N
비산7동우체국|35.88838056|128.5606557|비산7동우체국|-|대구광역시 서구 서대구로 358|09:00-18:00|개방화장실|N
달서천복개도로 남편|35.88441566|128.5653879|대구광역시 서구청|-|대구광역시 서구 비산동 970-7|24시간|개방화장실|N
감삼테니스장|35.85864436|128.55218190000002|대구광역시 서구청|-|대구광역시 서구 서대구로3길 43|08:00-20:00|개방화장실|N
서부도서관|35.87245023|128.5577302|대구광역시청|-|대구광역시 서구 국채보상로49길 12|07:00-22:00|개방화장실|N
내당1동 행정복지센터|35.86066081|128.56069209999998|대구광역시 서구청|-|대구광역시 서구 서대구로4길 35|09:00-18:00|개방화장실|N
내당2.3동 행정복지센터|35.86727483|128.5745323|대구광역시 서구청|-|대구광역시 서구 큰장로15길 11-1|09:00-18:00|개방화장실|N
내당4동 행정복지센터|35.85897213|128.5516436|대구광역시 서구청|-|대구광역시 서구 서대구로3길 46|09:00-18:00|개방화장실|N
노인복지관|35.85897213|128.5516436|대구광역시 서구청|-|대구광역시 서구 서대구로3길 46|09:00-18:00|개방화장실|N
비산2.3동 행정복지센터|35.87580089|128.57471429999998|대구광역시 서구청|-|대구광역시 서구 국채보상로81길 43|09:00-18:00|개방화장실|N
구민운동장|35.87364134|128.5429509|대구광역시 서구청|-|대구광역시 서구 이현동 152-1|24시간|개방화장실|N
망우당공원 서편화장실|35.874807000000004|128.640977|대구광역시 동구청장|-|대구광역시 동구 효목동 1177|09:00~17:00|공중화장실|N
단산유적산책로|35.87586557|128.64254409999998|대구광역시 동구청장|-|대구광역시 동구 봉무동 496-3|09:00~17:00|공중화장실|N
위남공원|35.87600495|128.641577|대구광역시 동구청장|-|대구광역시 동구 봉무동 1525|09:00~17:00|공중화장실|N
대구선 아양공원|35.87640522|128.64394099999998|대구광역시 동구청장|-|대구광역시 동구 지저동 794-2|09:00~17:00|공중화장실|N
노비아갈라|35.8879967|128.6517102|노비아갈라|-|대구광역시 동구 동촌로 87|09:00~17:00|공중화장실|N
서원 kingmill|35.87832515|128.73048789999999|㈜세움케이앤디|-|대구광역시 동구 이노밸리로 305|09:00~17:00|공중화장실|N
영남이공대 학생회관|35.84716173|128.5865487|영남이공대학교|053-650-9114|대구광역시 남구 현충로 170 (대명동,1737)|8시간|공중화장실|N
영남이공대 토목관|35.84716173|128.5865487|영남이공대학교|053-650-9114|대구광역시 남구 현충로 170 (대명동,1737)|8시간|공중화장실|N
영남이공대 희망관|35.84716173|128.5865487|영남이공대학교|053-650-9114|대구광역시 남구 현충로 170 (대명동,1737)|8시간|공중화장실|N
심인고 체육관|35.84969944|128.5783332|심인고|053-712-9820|대구광역시 남구 현충로39길 29 (대명동)|8시간|공중화장실|N
심인고 교사동|35.84969944|128.5783332|심인고|053-712-9820|대구광역시 남구 현충로39길 29 (대명동)|8시간|공중화장실|N
심인고 정보관|35.84969944|128.5783332|심인고|053-712-9820|대구광역시 남구 현충로39길 29 (대명동)|8시간|공중화장실|N
심인고 본관|35.84969944|128.5783332|심인고|053-712-9820|대구광역시 남구 현충로39길 29 (대명동)|8시간|공중화장실|N
심인고 동관|35.84969944|128.5783332|심인고|053-712-9820|대구광역시 남구 현충로39길 29 (대명동)|8시간|공중화장실|N
심인중 서관|35.84969944|128.5783332|심인고|053-712-9820|대구광역시 남구 현충로39길 29 (대명동)|8시간|공중화장실|N
혁신도시주유소|35.87262427|128.7381273|김완수|-|대구광역시 동구 안심로 503|06:00~24:00|공중화장실|N
대림치안센터|35.87536824|128.7549147|대구동부경찰서장|-|대구광역시 동구 혁신대로 527|06:00~24:00|공중화장실|N
안심주유소|35.87174849|128.7366658|김형섭|-|대구광역시 동구 안심로 484|09:00~18:00|공중화장실|Y
옻골|35.874046|128.639578|대구광역시 동구청장|-|대구광역시 동구 둔산동 359|09:00~17:00|공중화장실|Y
동화사|36.00225583|128.7028821|동화사 주지스님|-|대구광역시 동구 동화사1길 1 (도학동)|09:00~17:00|공중화장실|Y
이시아폴리스 태왕아너스 상가지점|35.92052117|128.6405026|㈜도원이앤씨|-|대구광역시 동구 팔공로 241 (봉무동)|09:00~17:00|공중화장실|N
효경병원|35.87586557|128.64254409999998|이창|-|대구광역시 동구 화랑로 157 (효목동)|09:00~17:00|공중화장실|N
대구효목초등학교|35.87600495|128.641577|대구광역시 교육감|-|대구광역시 동구 화랑로27길 25 (효목동)|06:00~24:00|공중화장실|Y
대동병원|35.87640522|128.6439413|박상운|-|대구광역시 동구 화랑로 169 (효목동)|09:00~17:00|공중화장실|N
성원빌딩|35.88560445|128.63493459999998|황종옥|-|대구광역시 동구 아양로 200 (효목동)|09:00~17:00|공중화장실|N
대구시민안전테마파크|35.879465|128.635851|대구광역시|-|대구광역시 동구 팔공산로 1155 시민안전테마파크|09:00~17:00|공중화장실|N
이시아폴리스 라이프스타일센터|35.9215394|128.63736200000002|주식회사하나은행|-|대구광역시 동구 팔공로49길 16 (봉무동)|09:00~17:00|공중화장실|N
강동노인복지회관|35.86575948|128.7058238|대구광역시 동구청장|-|대구광역시 동구 안심로 190 (신기동)|09:00~17:00|공중화장실|N
안심공공도서관|35.859031200000004|128.70181399999998|대구광역시 동구청장|-|대구광역시 동구 금호강변로 360 (율하동)|09:00~17:00|공중화장실|N
도평동주민센터|35.90997576|128.65013000000002|대구광역시 동구청장|-|대구광역시 동구 팔공로24길 171 (도동)|09:00~17:00|공중화장실|N
동구공예전시장|35.911916999999995|128.6420975|대구광역시 동구청장|-|대구광역시 동구 팔공로30길 7-2 (불로동)|09:00~17:00|공중화장실|N
파티마병원|35.88384877|128.62298959999998|파티마|-|대구광역시 동구 아양로 99|09:00~17:00|공중화장실|N
광복회조양회관|35.877098600000004|128.654603|대구광역시|-|대구광역시 동구 효동로2길 94|09:00~17:00|공중화장실|N
대원주유소|35.8829273|128.6448824|장성일|-|대구광역시 동구 효동로 66 (효목동)|09:00~17:00|공중화장실|N
㈜경북가스|35.88071824|128.635844|장래익|-|대구광역시 동구 효신로16길 122 (효목동)|09:00~17:00|공중화장실|N
SK엔크린효동로주유소|35.883342|128.64355559999998|장성일|-|대구광역시 동구 효동로 77 (효목동)|09:00~17:00|공중화장실|N
효목시장|35.88291358|128.6427251|시장상인회|-|대구광역시 동구 효동로15길 13 (효목동, 효목시장아파트)|09:00~17:00|공중화장실|N
효목1동주민센터|35.88161420000001|128.6449448|대구광역시 동구청장|-|대구광역시 동구 화랑로41길 46 (효목동)|09:00~17:00|공중화장실|N
대구일마이스터고등학교|35.88205179|128.6472206|대구광역시 교육감|-|대구광역시 동구 효동로 48 (효목동)|09:00~17:00|공중화장실|N
대구효동초등학교|35.88412597|128.6447523|대구광역시 교육감|-|대구광역시 동구 효동로 78-7 (효목동)|09:00~17:00|공중화장실|Y
망우공원|35.893708000000004|128.638279|대구광역시 동구청장|-|대구광역시 동구 효목1동 산234-35|09:00~17:00|공중화장실|N
동촌유원지 녹수대|35.97226|128.728041|대구광역시 동구청장|-|대구광역시 동구 효목동 234-15|00:00~24:00|공중화장실|N
경북일보|35.87518|128.6250668|황인찬|-|대구광역시 동구 동대구로 501|00:00~24:00|공중화장실|N
KT효목사옥|35.8786797|128.63356720000002|㈜케이티프리텔|-|대구광역시 동구 동부로 197 (효목동)|00:00~24:00|공중화장실|N
효목주유소|35.879265999999994|128.63467350000002|박수경|-|대구광역시 동구 동부로 211 (효목동)|00:00~24:00|공중화장실|N
효목2치안센터|35.8803427|128.6367148|대구동부경찰서장|-|대구광역시 동구 동부로 234|09:00~17:00|공중화장실|Y
데이콤경북지사|35.8794653|128.635851|㈜엘지데이콤|-|대구광역시 동구 동부로 220 (효목동)|09:00~17:00|공중화장실|N
대구지방법원|35.87893114|128.6355519|법무부|-|대구광역시 동구 동부로 212 (효목동)|00:00~24:00|공중화장실|N
팔공정보문화센터|35.87511048|128.6344813|대구광역시 동구청장|-|대구광역시 동구 효신로 34 (효목동)|06:00~24:00|공중화장실|N
해맞이동산|35.882909000000005|128.6485644|대구광역시 동구청장|-|대구광역시 동구 효동로6길 51|09:00~17:00|공중화장실|Y
효목2동주민센터|35.8781522|128.6412466|대구광역시 동구청장|-|대구광역시 동구 화랑로25길 45 (효목동)|09:00~17:00|공중화장실|N
동부허병원|35.8726473|128.6357572|허진영|-|대구광역시 동구 화랑로 81 (효목동)|09:00~17:00|공중화장실|N
일호주유소|35.873153|128.6379628|김숙희|-|대구광역시 동구 화랑로 103 (효목동)|09:00~17:00|공중화장실|N
동구시장|35.8740457|128.639578|시장상인회|-|대구광역시 동구 효목로 8 (효목동)|09:00~17:00|공중화장실|N
효목동우체국|35.8753855|128.640342|대구광역시 동구청장|-|대구광역시 동구 화랑로25길 13 (효목동)|09:00~17:00|공중화장실|N
한국전력공사 동대구지점|35.8748071|128.6409771|한국전력공사|-|대구광역시 동구 화랑로 135 (효목동)|09:00~17:00|공중화장실|N
대구서촌초등학교|35.98040326|128.6317455|대구광역시 교육감|-|대구광역시 동구 파계로 525-11 (중대동)|00:00~24:00|공중화장실|N
만남주유소|35.9681394|128.62986840000002|이경화|-|대구광역시 동구 파계로 392 (중대동)|00:00~24:00|공중화장실|N
공산파출소|35.97914413|128.6336841|대구동부경찰서장|-|대구광역시 동구 파계로 546 (중대동)|00:00~24:00|공중화장실|N
팔공산자연공원5|35.9935605|128.6813231|대구광역시장|-|대구광역시 동구 팔공산로 1037-10 (용수동)|00:00~24:00|공중화장실|N
팔공산자연공원6|35.994133000000005|128.6814789|대구광역시장|-|대구광역시 동구 팔공산로 1037-16 (용수동)|09:00~17:00|공중화장실|N
공산주유소|35.94023587|128.6453868|윤동원|-|대구광역시 동구 팔공로 473 (지묘동)|09:00~17:00|공중화장실|N
신숭겸장군유적지|35.94210574|128.6409753|표충제신씨문중|-|대구광역시 동구 신숭겸길 17 (지묘동)|06:00~24:00|공중화장실|N
현이주유소|35.96061829999999|128.63192420000001|홍연기|-|대구광역시 동구 파계로 308 (지묘동)|09:00~17:00|공중화장실|Y
동북주유소|35.95305643|128.6343569|정용순|-|대구광역시 동구 파계로 220 (지묘동)|09:00~17:00|공중화장실|N
해서초등학교|35.9180615|128.64305900000002|대구광역시 교육감|-|대구광역시 동구 팔공로 220-4|09:00~17:00|공중화장실|N
대구공항|35.89988945|128.6375558|한국공항|-|대구광역시 동구 공항로 221 (지저동)|09:00~17:00|공중화장실|N
팔공산I.C주유소|35.8964705|128.6404051|변시영|-|대구광역시 동구 공항로 247 (지저동)|09:00~17:00|공중화장실|N
SK네트웍스㈜ 공항셀프주유소|35.8971279|128.64015790000002|대표이사|-|대구광역시 동구 공항로 241 (지저동)|09:00~17:00|공중화장실|N
공항시장|35.896308000000005|128.6389305|대구광역시 동구청장|-|대구광역시 동구 해동로3길 17-2 (지저동)|09:00~17:00|공중화장실|N
공항랜드주유소|35.8958792|128.6410795|강태수|-|대구광역시 동구 공항로 259 (지저동)|06:00~24:00|공중화장실|N
하나주유소|35.8960149|128.64013799999998|이철진|-|대구광역시 동구 공항로 254 (지저동)|09:00~17:00|공중화장실|Y
지저동주민센터|35.9935605|128.6813231|대구광역시 동구청장|-|대구광역시 동구 팔공산로 1037-10|09:00~17:00|공중화장실|N
팔공산자연공원7|35.97226|128.7280408|대구광역시장|-|대구광역시 동구 갓바위로 267 (진인동)|09:00~17:00|공중화장실|N
팔공산자연공원8|35.970824799999995|128.7255456|대구광역시장|-|대구광역시 동구 갓바위로 223-7 (진인동)|09:00~17:00|공중화장실|N
팔공산자연공원9 (파계지구주차장)|35.99089789|128.637144|대구광역시장|-|대구광역시 동구 파계로 686 (중대동)|09:00~17:00|공중화장실|N
동촌유원지|35.878211|128.6546178|대구광역시 동구청장|-|대구광역시 동구 효동로2길 72|06:00~24:00|공중화장실|N
아양아트센터|35.87956478|128.65196029999998|대구광역시 동구청장|-|대구광역시 동구 효동로2길 24 (효목동)|06:00~24:00|공중화장실|N
효목1치안센터|35.88483936|128.6405457|대구동부경찰서장|-|대구광역시 동구 아양로50길 50|06:00~24:00|공중화장실|N
대구 대학교 대강당|35.85594572|128.57507420000002|대구대학교|053-850-5000|대구광역시 남구 성당로50길 33 (대명동,폐쇄)|8시간|공중화장실|N
율하체육공원 관리실|35.85992363|128.69284|대구광역시 동구청장|-|대구광역시 동구 금호강변로 278 (율하동)|09:00~17:00|공중화장실|N
율하체육공원 생태연못|35.85992363|128.69284|대구광역시 동구청장|-|대구광역시 동구 금호강변로 278 (율하동)|09:00~17:00|공중화장실|N
율하체육공원 잔디구장|35.85992363|128.69284|대구광역시 동구청장|-|대구광역시 동구 금호강변로 278 (율하동)|09:00~17:00|공중화장실|N
안일초등학교|35.87142447|128.6952236|대구광역시 교육감|-|대구광역시 동구 율하동로23길 66 (율하동)|00:00~24:00|공중화장실|N
율하지하철역|35.98790526|128.6943198|지하철공사|-|대구광역시 동구 안심로 57 (율하동)|00:00~24:00|공중화장실|N
대구율하초등학교|35.86781358|128.7015369|대구광역시 교육감|-|대구광역시 동구 율하동로15길 1 (율하동)|09:00~17:00|공중화장실|N
입석중학교|35.89105302|128.6448024|대구광역시 교육감|-|대구광역시 동구 동촌로 10 (입석동)|00:00~24:00|공중화장실|N
동촌종합사회복지관|35.8938883|128.6449391|아시아복지재단|-|대구광역시 동구 아양로 336|00:00~24:00|공중화장실|N
동대구우체국|35.8923652|128.6442378|우체국장|-|대구광역시 동구 동촌로 1 (입석동)|09:00~17:00|공중화장실|N
동촌농협|35.89074402|128.64235970000001|동촌농업협동조합|-|대구광역시 동구 아양로 295 (입석동)|06:00~24:00|공중화장실|Y
대구입석초등학교|35.89069277|128.6439976|대구광역시 교육감|-|대구광역시 동구 아양로 300 (입석동)|00:00~24:00|공중화장실|N
용계지하철역|35.87624356|128.6816456|지하철공사|-|대구광역시 동구 동촌로 지하383 (용계동)|09:00~17:00|공중화장실|Y
대성산업㈜ 강촌대성주유소|35.87551034|128.67602779999999|권성욱|-|대구광역시 동구 화랑로 481 (용계동)|09:00~17:00|공중화장실|N
화랑주유소|35.874817900000004|128.6768034|김영재|-|대구광역시 동구 화랑로 484 (용계동)|09:00~17:00|공중화장실|N
동대구터미널주유소|35.872994899999995|128.68705559999998|㈜그린에너지 배성흠|-|대구광역시 동구 화랑로 584 (용계동)|09:00~17:00|공중화장실|N
동도주유소|35.871871899999995|128.6899322|하상준|-|대구광역시 동구 안심로 30 (용계동)|09:00~17:00|공중화장실|N
동도LPG충전소|35.87158581|128.6901696|동도LPG충전소|-|대구광역시 동구 안심로 34 (용계동)|09:00~17:00|공중화장실|N
㈜한대동부주유소|35.87488087|128.6873122|김강식|-|대구광역시 동구 동촌로 445 (용계동)|09:00~17:00|공중화장실|N
안심2동주민센터|35.8754256|128.687081|대구광역시 동구청장|-|대구광역시 동구 반야월로1길 28 (용계동)|06:00~24:00|공중화장실|N
팔공산자연공원1|35.87691901|128.67844|대구광역시장|-|대구광역시 동구 용수동 16-10|06:00~24:00|공중화장실|Y
팔공산자연공원10 (파계지구사무실옆)|35.9938564|128.6378364|대구광역시장|-|대구광역시 동구 파계로 715-4 (중대동)|09:00~17:00|공중화장실|N
팔공산자연공원11|35.87624356|128.681646|대구광역시장|-|대구광역시 동구 진인동 123-12|09:00~17:00|공중화장실|N
팔공산자연공원2|35.87551034|128.67602779999999|대구광역시장|-|대구광역시 동구 화랑로 481|06:00~24:00|공중화장실|N
늘푸른알뜰주유소|35.98790526|128.69432179999998|허대영 외1인|-|대구광역시 동구 팔공산로 1184 (용수동)|06:00~24:00|공중화장실|N
팔공산자연공원3|35.874818|128.676803|대구광역시장|-|대구광역시 동구 용수동 28|09:00~17:00|공중화장실|N
율하체육공원 축구장|35.85992363|128.69284|대구광역시 동구청장|-|대구광역시 동구 금호강변로 278 (율하동)|09:00~17:00|공중화장실|Y
팔공산자연공원4|35.98790526|128.69432179999998|대구광역시장|-|대구광역시 동구 팔공산로 1184 (용수동)|09:00~17:00|공중화장실|Y
롯데쇼핑프라자|35.86846302|128.6933316|롯데쇼핑|-|대구광역시 동구 안심로 80|09:00~17:00|공중화장실|N
사랑어린이공원|35.871871999999996|128.6899322|대구광역시 동구청장|-|대구광역시 동구 안심로 30 (용계동)|09:00~17:00|공중화장실|N
믿음어린이공원|35.87158581|128.6901696|대구광역시 동구청장|-|대구광역시 동구 안심로 34|09:00~17:00|공중화장실|N
율하근린공원|35.87488087|128.6873122|대구광역시 동구청장|-|대구광역시 동구 동촌로 445|09:00~17:00|공중화장실|N
율하주유소|35.87302101|128.6998251|손경호|-|대구광역시 동구 반야월로 104 (율하동)|09:00~17:00|공중화장실|Y
샛터근린공원|35.991546|128.698648|대구광역시 동구청장|-|대구광역시 동구 율하동 1460|09:00~17:00|공중화장실|N
봉무공원주차장|35.93576399|128.6442392|대구광역시 동구청장|-|-|00:00~24:00|공중화장실|N
봉무공원4|35.92017148|128.649974|대구광역시 동구청장|-|대구광역시 동구 팔공로50길 66 (봉무동)|00:00~24:00|공중화장실|N
봉무공원3|35.92017148|128.649974|대구광역시 동구청장|-|대구광역시 동구 팔공로50길 66 (봉무동)|00:00~24:00|공중화장실|N
봉무공원2|35.92017148|128.649974|대구광역시 동구청장|-|대구광역시 동구 팔공로50길 66 (봉무동)|00:00~24:00|공중화장실|N
봉무공원1|35.92017148|128.649974|대구광역시 동구청장|-|대구광역시 동구 팔공로50길 66 (봉무동)|06:00~24:00|공중화장실|N
불로봉무동주민센터|35.9103078|128.6392874|대구광역시 동구청장|-|대구광역시 동구 팔공로25길 16|09:00~17:00|공중화장실|N
영신중학교|35.91925526|128.6473981|영신재단|-|대구광역시 동구 팔공로50길 32 (봉무동)|09:00~17:00|공중화장실|N
영신고등학교|35.91925526|128.6473981|대구광역시 교육감|-|대구광역시 동구 팔공로50길 32 (봉무동)|09:00~17:00|공중화장실|N
대구영신초등학교|35.91925526|128.6473981|영신재단|-|대구광역시 동구 팔공로50길 32 (봉무동)|06:00~24:00|공중화장실|N
국제주유소|35.93241037|128.64354369999998|오은주, 이영근|-|대구광역시 동구 팔공로 376 (봉무동)|06:00~24:00|공중화장실|Y
공산중학교|35.95506586|128.6906832|대구광역시 교육감|-|대구광역시 동구 팔공로197길 26|09:00~18:00|공중화장실|Y
케이에이㈜직영|35.8828949|128.66309809999998|경북광유주식회사|-|대구광역시 동구 동촌로 205|09:00~18:00|공중화장실|Y
강남병원|35.883069|128.66303159999998|최용석|-|대구광역시 동구 동촌로 207|09:00~18:00|공중화장실|N
현대상가시장|35.88278731|128.6657517|시장상인회|-|대구광역시 동구 방촌로 125|06:00~24:00|공중화장실|N
세경방촌주유소|35.87958564|128.67178629999998|기보연|-|대구광역시 동구 동촌로 291-4|09:00~18:00|공중화장실|Y
방촌치안센터|35.879403|128.67168529999998|대구동부경찰서장|-|대구광역시 동구 동촌로 293|09:00~18:00|공중화장실|N
방촌지하철역|35.87996746|128.66999170000003|지하철공사|-|대구광역시 동구 동촌로 275(방촌동)|09:00~18:00|공중화장실|Y
해안동주민센터|35.8820761|128.6716797|대구광역시 동구청장|-|대구광역시 동구 방촌로29길 46|09:00~18:00|공중화장실|N
해안지하철역|35.88382759|128.6590925|지하철공사|-|대구광역시 동구 동촌로 167(방촌동)|06:00~24:00|공중화장실|N
방촌주유소|35.8780635|128.67444709999998|이동현|-|대구광역시 동구 동촌로 320|09:00~18:00|공중화장실|N
스타하우스|35.87813938|128.6739461|㈜스타하우스|-|대구광역시 동구 동촌로 316|09:00~18:00|공중화장실|N
대구용호초등학교|35.87735702|128.6723772|대구광역시 교육감|-|대구광역시 동구 동촌로56길 82|06:00~24:00|공중화장실|Y
국가대표 제2주유소|35.8776654|128.664889|김태헌|-|대구광역시 동구 화랑로 377|09:00~18:00|공중화장실|N
천광주유소|35.876866799999995|128.662867|남상필|-|대구광역시 동구 화랑로 356|09:00~18:00|공중화장실|N
대구방촌초등학교|35.88065514|128.6630347|대구광역시 교육감|-|대구광역시 동구 동촌로42길 35-14|09:00~18:00|공중화장실|N
동촌중학교|35.882418|128.6596605|대구광역시 교육감|-|대구광역시 동구 동촌로 176|09:00~18:00|공중화장실|Y
대구시농업기술센터|35.88008451|128.6602502|대구광역시|-|대구광역시 동구 동촌로42길 69|09:00~18:00|공중화장실|N
대구동촌초등학교|35.882078|128.658931|대구광역시 교육감|-|대구광역시 동구 동촌로 168|06:00~24:00|공중화장실|Y
SK동호주유소|35.86714446|128.72243319999998|김완수|-|대구광역시 동구 안심로 346|09:00~18:00|공중화장실|Y
반야월주유소|35.8723123|128.71051070000001|김주원|-|대구광역시 동구 반야월로 201|09:00~18:00|공중화장실|N
대구선 반야월공원(역사도서관)|35.872504|128.724961|대구광역시 동구청장|-|-|09:00~17:00|공중화장실|N
대구선 동촌공원|35.876033|128.687252|대구광역시 동구청장|-|-|09:00~17:00|공중화장실|N
신천도서관|35.871472|128.617757|신천도서관장|-|-|09:00~17:00|공중화장실|N
DTC섬유박물관(대구경제자유구역청)|35.91910021|128.640296|DTC섬유박물관장|-|-|09:00~17:00|공중화장실|N
레일카페 화장실|35.86259146|128.737239|대구광역시 동구청장|-|-|09:00~17:00|공중화장실|N
동화천 화장실|35.946469|128.63709599999999|대구광역시 동구청장|-|-|00:00~24:00|공중화장실|N
불로천 화장실|35.908637|128.646165|대구광역시 동구청장|-|-|00:00~24:00|공중화장실|N
금호강 하천변 화장실|35.874765000000004|128.66439499999998|대구광역시 동구청장|-|-|00:00~24:00|공중화장실|N
금호강 하천변 화장실|35.877086|128.66204399999998|대구광역시 동구청장|-|-|00:00~24:00|공중화장실|N
금호강 하천변 화장실|35.894589|128.633744|대구광역시 동구청장|-|-|00:00~24:00|공중화장실|N
연갤러리화장실|35.869001000000004|128.743566|대구광역시 동구청장|-|-|09:00~17:00|공중화장실|N
연생태관화장실|35.864218|128.737165|대구광역시 동구청장|-|-|09:00~17:00|공중화장실|N
이마트 반야월점|35.8708661|128.7274592|주식회사신세계대표이사황경규|-|대구광역시 동구 안심로 389-2|09:00~17:00|공중화장실|N
대원석유㈜ 대신주유소|35.87019641|128.7297797|조재환|-|대구광역시 동구 안심로 421|09:00~17:00|공중화장실|N
대구교육연수원|35.8724248|128.70242009999998|대구광역시교육감|-|대구광역시 동구 율하동로 143|09:00~17:00|공중화장실|N
팔공노인복지회관|35.8874423|128.63099540000002|대구광역시 동구청장|-|대구광역시 동구 동북로 393|09:00~17:00|공중화장실|N
신기중학교|35.86816599|128.7023592|대구광역시 교육감|-|대구광역시 동구 율하동로 88|09:00~17:00|공중화장실|N
안심1동주민센터|35.870390500000006|128.7021131|대구광역시 동구청장|-|대구광역시 동구 율하동로 121|06:00~24:00|공중화장실|Y
반야월종합시장|35.8724248|128.70242009999998|시장상인회|-|대구광역시 동구 율하동로 143|09:00~17:00|공중화장실|N
대구숙천초등학교|35.8769766|128.7533069|대구광역시 교육감|-|대구광역시 동구 숙천로 17|06:00~24:00|공중화장실|N
대구반야월초등학교|35.86827367|128.7107622|대구광역시 교육감|-|대구광역시 동구 안심로49길 70|09:00~17:00|공중화장실|N
안심3,4동주민센터|35.87031838|128.7109479|대구광역시 동구청장|-|대구광역시 동구 안심로49길 98|09:00~17:00|공중화장실|N
현대우성오일뱅크|35.86577692|128.7114392|김준영|-|대구광역시 동구 안심로 244|06:00~24:00|공중화장실|N
금호강주유소|35.9002891|128.62974|(주)에스제이에너지|-|대구광역시 동구 공항로 136|09:00~17:00|공중화장실|Y
불로봉무동우체국|35.92013993|128.6385937|우체국장|-|대구광역시 동구 팔공로47길 22|09:00~17:00|공중화장실|Y
불로전통시장|35.91040163|128.6419419|대구광역시 동구청장|-|대구광역시 동구 팔공로26길 9-1|06:00~24:00|공중화장실|Y
신암선열공원|35.890622|128.6311237|대구광역시장|-|대구광역시 동구 동북로71길 33|09:00~17:00|공중화장실|N
신암로주유소|35.88107825|128.6121835|박성호|-|대구광역시 동구 신암로 117|09:00~17:00|공중화장실|N
한국장학재단|35.8811634|128.6129585|재단이사|-|대구광역시 동구 신암로 125|09:00~17:00|공중화장실|N
대구공업고등학교|35.88321428|128.61417120000002|대구광역시 교육감|-|대구광역시 동구 대현로 135|09:00~17:00|공중화장실|Y
제일안과병원|35.881828000000006|128.6147578|이규원|-|대구광역시 동구 아양로 1|09:00~17:00|공중화장실|N
관광고등학교|35.8900476|128.6323697|학교법인 동구교육재단|-|대구광역시 동구 동북로71길 37|09:00~17:00|공중화장실|Y
한국건강관리협회 대구시지부|35.868786|128.6235479|사단법인한국건강관리협회|-|대구광역시 동구 장등로 16|09:00~17:00|공중화장실|N
신암중학교|35.890569799999994|128.63405840000001|대구광역시 교육감|-|대구광역시 동구 아양로41길 56|09:00~17:00|공중화장실|N
신암5동주민센터|35.889755900000004|128.6330629|대구광역시 동구청장|-|대구광역시 동구 아양로37길 92|09:00~17:00|공중화장실|N
신암1치안센터|35.885746399999995|128.61651809999998|동부경찰서장|-|대구광역시 동구 아양로7길 43|09:00~17:00|공중화장실|Y
대구기상대|35.8855468|128.6189625|부산지방기상청|-|대구광역시 동구 아양로9길 36|09:00~17:00|공중화장실|Y
신암주유소|35.88554636|128.6155319|노은순|-|대구광역시 동구 경대로 54|09:00~17:00|공중화장실|N
신암근린공원|35.88300524|128.6192562|대구광역시 동구청장|-|대구광역시 동구 큰고개로|09:00~17:00|공중화장실|N
동부여성문화회관|35.89041434|128.6223307|대구광역시|-|대구광역시 동구 신암북로11길 54-2|09:00~17:00|공중화장실|N
동부도서관|35.8901537|128.6215946|대구광역시|-|대구광역시 동구 신암북로11길 54|09:00~17:00|공중화장실|Y
백두산주유소|35.89136623|128.6239094|조수갑|-|대구광역시 동구 동북로 316|09:00~17:00|공중화장실|N
신암5치안센터|35.889629|128.63469229999998|대구동부경찰서장|-|대구광역시 동구 아양로39길 48-1|09:00~17:00|공중화장실|N
평화시장|35.88300524|128.6192562|시장상인회|-|대구광역시 동구 아양로9길 10|09:00~17:00|공중화장실|N
파티마병원|35.88384877|128.62298959999998|파티마|-|대구광역시 동구 아양로 99|09:00~17:00|공중화장실|N
상수도동부사업소|35.880207|128.6140215|대구광역시|-|대구광역시 동구 송라로 155|09:00~17:00|공중화장실|N
신암2동주민센터|35.8799695|128.61270679999998|대구광역시 동구청장|-|대구광역시 동구 신성로 56|09:00~17:00|공중화장실|Y
동구청|35.88655942|128.63547409999998|대구광역시 동구청장|-|대구광역시 동구 아양로 207|09:00~17:00|공중화장실|N
동대구역|35.87943775|128.62871850000002|지하철공사|-|대구광역시 동구 동대구로 550(신암동)|09:00~17:00|공중화장실|Y
신암4동주민센터|35.8850364|128.6293294|대구광역시 동구청장|-|대구광역시 동구 신암남로23길 53|09:00~17:00|공중화장실|Y
대구덕성초등학교|35.88210557|128.62847730000001|대구광역시 교육감|-|대구광역시 동구 아양로34길 50|09:00~17:00|공중화장실|N
KT 동대구지사|35.88422588|128.6268198|㈜케이티프리텔|-|대구광역시 동구 아양로 114|09:00~17:00|공중화장실|N
바로본병원|35.8684136|128.6151819|의료법인백천의료재단|-|대구광역시 동구 국채보상로 769 (신천동)|08:30~18:30|공중화장실|N
동대구대성빌딩|35.8750542|128.6238218|김영훈|-|대구광역시 동구 장등로 86 (신천동)|08:30~18:30|공중화장실|N
신천3동주민센터|35.87541517|128.6237458|대구광역시 동구청장|-|대구광역시 동구 장등로 90 (신천동)|06:00~24:00|공중화장실|Y
신천지하철역|35.87463187|128.6176509|지하철공사|-|대구광역시 동구 동부로 지하41 (신천동)|09:00~17:00|공중화장실|Y
동부소방서|35.87598585|128.62522520000002|대구광역시|-|대구광역시 동구 동대구로 507 (신천동)|09:00~17:00|공중화장실|Y
동대구역치안센터|35.877336799999995|128.6263248|국(관리청 내무부)|-|대구광역시 동구 동대구로 527 (신천동)|09:00~17:00|공중화장실|Y
신천치안센터|35.8699333|128.6148406|대구동부경찰서장|-|대구광역시 동구 국채보상로159길 41 (신천동, 우방푸른타운)|09:00~17:00|공중화장실|Y
송라시장|35.87448676|128.6153095|시장상인회|-|대구광역시 동구 동부로5길 10|06:00~24:00|공중화장실|N
동보한방의원|35.874035|128.6175126|장세환|-|대구광역시 동구 송라로 79-1 (신천동)|00:00~24:00|공중화장실|N
대구효신초등학교|35.8726276|128.6321105|대구광역시 교육감|-|대구광역시 동구 동부로34길 70 (신천동)|06:00~24:00|공중화장실|N
동신초등학교|35.869074|128.62899099999998|대구광역시 교육감|-|대구광역시 동구 송라로 123 대구동신초등학교|06:00~24:00|공중화장실|Y
동부주유소|35.872746899999996|128.6346617|최억만|-|대구광역시 동구 효신로 7|09:00~17:00|공중화장실|N
신대한LPG제1충전소|35.87604816|128.6219491|박용규,박용환,김미숙|-|대구광역시 동구 동부로 89|09:00~17:00|공중화장실|N
효신시장|35.8744512|128.63261440000002|시장상인회|-|대구광역시 동구 효신로5길 40|09:00~17:00|공중화장실|N
신천4동주민센터|35.871728600000004|128.629306|대구광역시 동구청장|-|대구광역시 동구 동부로30길 61-7|09:00~17:00|공중화장실|N
신천4동우체국|35.876138700000006|128.628287|우제국장|-|대구광역시 동구 동부로30길 12-1|09:00~17:00|공중화장실|N
신천1,2동주민센터|35.8699333|128.6148406|대구광역시 동구청장|-|대구광역시 동구 국채보상로159길 41 (신천동, 우방푸른타운)|06:00~24:00|공중화장실|N
KT&G 동대구지점|35.86800482|128.628734|KT&G|-|대구광역시 동구 동부로30길 100-3|09:00~17:00|공중화장실|Y
동대구세무서|35.8673843|128.629075|국세청|-|대구광역시 동구 국채보상로 895|09:00~17:00|공중화장실|Y
MH컨벤션웨딩|35.867868|128.6272081|㈜문화웨딩|-|대구광역시 동구 동대구로 418|09:00~17:00|공중화장실|N
㈜아모레퍼시픽|35.8673211|128.6272603|㈜아모레퍼시픽|-|대구광역시 동구 동대구로 412|09:00~17:00|공중화장실|Y
LG텔레콤 대구교환국|35.8697765|128.6265246|㈜엘지텔레콤|-|대구광역시 동구 동대구로 440|09:00~17:00|공중화장실|N
극동주유소|35.875112200000004|128.6213294|조양래|-|대구광역시 동구 동부로 80|09:00~17:00|공중화장실|N
동대구역전시장|35.87430058|128.6205261|시장상인회|-|대구광역시 동구 동부로16길 18|09:00~17:00|공중화장실|N
대구신천초등학교|35.87165608|128.6210093|대구광역시 교육감|-|대구광역시 동구 송라로6길 5|09:00~17:00|공중화장실|Y
대성산업㈜하이웨이주유소|35.8676734|128.6236282|대표이사|-|대구광역시 동구 국채보상로 849|09:00~17:00|공중화장실|N
㈜영남일보|35.869673799999994|128.6249367|영남일보사 외|-|대구광역시 동구 동대구로 441|09:00~17:00|공중화장실|N
대구경북디자인센타|35.8714021|128.6248352|대구광역시|-|대구광역시 동구 동대구로 461|09:00~17:00|공중화장실|N
대구상공회의소|35.871089700000006|128.62495900000002|대구상공회의소|-|대구광역시 동구 동대구로 457|09:00~17:00|공중화장실|N
스마트 벤처창업 학교|35.8723182|128.624827|학교장|-|대구광역시 동구 동대구로 467|09:00~17:00|공중화장실|N
입석중학교|35.89105302|128.6448024|대구광역시 교육감|-|대구광역시 동구 동촌로 10 (입석동)|00:00~24:00|공중화장실|N
대구율하초등학교|35.86781358|128.7015369|대구광역시 교육감|-|대구광역시 동구 율하동로15길 1 (율하동)|09:00~17:00|공중화장실|N
율하지하철역|35.86977924|128.6927795|지하철공사|-|대구광역시 동구 안심로 지하57 (율하동)|00:00~24:00|공중화장실|N
안일초등학교|35.87142447|128.6952236|대구광역시 교육감|-|대구광역시 동구 율하동로23길 66 (율하동)|00:00~24:00|공중화장실|N
율하체육공원 잔디구장|35.85992363|128.69284|대구광역시 동구청장|-|대구광역시 동구 금호강변로 278 (율하동)|09:00~17:00|공중화장실|N
율하체육공원 생태연못|35.85992363|128.69284|대구광역시 동구청장|-|대구광역시 동구 금호강변로 278 (율하동)|09:00~17:00|공중화장실|N
율하체육공원 관리실|35.85992363|128.69284|대구광역시 동구청장|-|대구광역시 동구 금호강변로 278 (율하동)|09:00~17:00|공중화장실|N
율하주유소|35.87302101|128.6998251|손경호|-|대구광역시 동구 반야월로 104 (율하동)|09:00~17:00|공중화장실|Y
롯데쇼핑프라자|35.86846302|128.6933316|롯데쇼핑|-|대구광역시 동구 안심로 80|09:00~17:00|공중화장실|N
팔공산자연공원4|35.98790526|128.69432179999998|대구광역시장|-|대구광역시 동구 팔공산로 1184 (용수동)|09:00~17:00|공중화장실|Y
율하체육공원 축구장|35.85992363|128.69284|대구광역시 동구청장|-|대구광역시 동구 금호강변로 278 (율하동)|09:00~17:00|공중화장실|Y
늘푸른알뜰주유소|35.98790526|128.69432179999998|허대영 외1인|-|대구광역시 동구 팔공산로 1184 (용수동)|06:00~24:00|공중화장실|N
㈜한대동부주유소|35.87488087|128.6873122|김강식|-|대구광역시 동구 동촌로 445 (용계동)|09:00~17:00|공중화장실|N
동도LPG충전소|35.87158581|128.6901696|동도LPG충전소|-|대구광역시 동구 안심로 34 (용계동)|09:00~17:00|공중화장실|N
동도주유소|35.871871899999995|128.6899322|하상준|-|대구광역시 동구 안심로 30 (용계동)|09:00~17:00|공중화장실|N
동대구터미널주유소|35.872994899999995|128.68705559999998|㈜그린에너지 배성흠|-|대구광역시 동구 화랑로 584 (용계동)|09:00~17:00|공중화장실|N
화랑주유소|35.874817900000004|128.6768034|김영재|-|대구광역시 동구 화랑로 484 (용계동)|09:00~17:00|공중화장실|N
대성산업㈜ 강촌대성주유소|35.87551034|128.67602779999999|권성욱|-|대구광역시 동구 화랑로 481 (용계동)|09:00~17:00|공중화장실|N
용계지하철역|35.87624356|128.6816456|지하철공사|-|대구광역시 동구 동촌로 지하383 (용계동)|09:00~17:00|공중화장실|Y
동대구고속주유소|35.87691901|128.6784404|권현성외1인|-|대구광역시 동구 동촌로 358 (용계동)|09:00~17:00|공중화장실|Y
동진주유소|35.87753115|128.67824040000002|대표이사|-|대구광역시 동구 동촌로 355|09:00~17:00|공중화장실|N
용계치안센터|35.875817600000005|128.6814593|대구동부경찰서장|-|대구광역시 동구 동촌로 390-1 (용계동)|09:00~17:00|공중화장실|N
조일공업고등학교|35.88208666|128.69445430000002|학교법인 윤당교육재단|-|대구광역시 동구 신덕로 136-11 (신평동)|09:00~17:00|공중화장실|Y
대구벤처센타|35.872828999999996|128.62483419999998|(재)대구파크노테크|-|대구광역시 동구 동대구로 475 (신천동)|09:00~17:00|공중화장실|N
벼룩시장|35.87350785|128.6248207|㈜미디어윌홀딩스|-|대구광역시 동구 동대구로 483 (신천동)|09:00~17:00|공중화장실|Y
천일주유소|35.8754396|128.6805517|변희성|-|대구광역시 동구 화랑로 515 (용계동)|09:00~17:00|공중화장실|N
㈜삼양사|35.8746811|128.6248621|㈜삼양사|-|대구광역시 동구 동대구로 495 (신천동)|09:00~17:00|공중화장실|Y
청구중학교|35.86865579|128.6205717|학교법인 청구학원 이사장 김지현|-|대구광역시 동구 국채보상로 827 (신천동)|09:00~17:00|공중화장실|Y
청구고등학교|35.86865579|128.6205717|학교법인 청구학원 이사장 김지현|-|대구광역시 동구 국채보상로 827 (신천동)|09:00~17:00|공중화장실|Y
효목시장|35.88291358|128.6427251|시장상인회|-|대구광역시 동구 효동로15길 13 (효목동, 효목시장아파트)|09:00~17:00|공중화장실|N
SK엔크린효동로주유소|35.883342|128.64355559999998|장성일|-|대구광역시 동구 효동로 77 (효목동)|09:00~17:00|공중화장실|N
㈜경북가스|35.88071824|128.635844|장래익|-|대구광역시 동구 효신로16길 122 (효목동)|09:00~17:00|공중화장실|N
대원주유소|35.8829273|128.6448824|장성일|-|대구광역시 동구 효동로 66 (효목동)|09:00~17:00|공중화장실|N
광복회조양회관|35.877098600000004|128.654603|대구광역시|-|대구광역시 동구 효동로2길 94|09:00~17:00|공중화장실|N
효목1치안센터|35.88483936|128.6405457|대구동부경찰서장|-|대구광역시 동구 아양로50길 50|06:00~24:00|공중화장실|N
아양아트센터|35.87956478|128.65196029999998|대구광역시 동구청장|-|대구광역시 동구 효동로2길 24 (효목동)|06:00~24:00|공중화장실|N
팔공산자연공원9 (파계지구주차장)|35.99089789|128.637144|대구광역시장|-|대구광역시 동구 파계로 686 (중대동)|09:00~17:00|공중화장실|N
팔공산자연공원8|35.970824799999995|128.7255456|대구광역시장|-|대구광역시 동구 갓바위로 223-7 (진인동)|09:00~17:00|공중화장실|N
팔공산자연공원7|35.97226|128.7280408|대구광역시장|-|대구광역시 동구 갓바위로 267 (진인동)|09:00~17:00|공중화장실|N
지저동주민센터|35.99357783|128.68131680000002|대구광역시 동구청장|-|대구광역시 동구 해동로3길 80 지저동|09:00~17:00|공중화장실|N
하나주유소|35.8960149|128.64013799999998|이철진|-|대구광역시 동구 공항로 254 (지저동)|09:00~17:00|공중화장실|Y
공항랜드주유소|35.8958792|128.6410795|강태수|-|대구광역시 동구 공항로 259 (지저동)|06:00~24:00|공중화장실|N
공항시장|35.896308000000005|128.6389305|대구광역시 동구청장|-|대구광역시 동구 해동로3길 17-2 (지저동)|09:00~17:00|공중화장실|N
SK네트웍스㈜ 공항셀프주유소|35.8971279|128.64015790000002|대표이사|-|대구광역시 동구 공항로 241 (지저동)|09:00~17:00|공중화장실|N
팔공산I.C주유소|35.8964705|128.6404051|변시영|-|대구광역시 동구 공항로 247 (지저동)|09:00~17:00|공중화장실|N
대구공항|35.89988945|128.6375558|한국공항|-|대구광역시 동구 공항로 221 (지저동)|09:00~17:00|공중화장실|N
동북주유소|35.95305643|128.6343569|정용순|-|대구광역시 동구 파계로 220 (지묘동)|09:00~17:00|공중화장실|N
현이주유소|35.96061829999999|128.63192420000001|홍연기|-|대구광역시 동구 파계로 308 (지묘동)|09:00~17:00|공중화장실|Y
신숭겸장군유적지|35.94210574|128.6409753|표충제신씨문중|-|대구광역시 동구 신숭겸길 17 (지묘동)|06:00~24:00|공중화장실|N
공산주유소|35.94023587|128.6453868|윤동원|-|대구광역시 동구 팔공로 473 (지묘동)|09:00~17:00|공중화장실|N
팔공산자연공원6|35.994133000000005|128.6814789|대구광역시장|-|대구광역시 동구 팔공산로 1037-16 (용수동)|09:00~17:00|공중화장실|N
팔공산자연공원5|35.9935605|128.6813231|대구광역시장|-|대구광역시 동구 팔공산로 1037-10 (용수동)|00:00~24:00|공중화장실|N
공산파출소|35.97914413|128.6336841|대구동부경찰서장|-|대구광역시 동구 파계로 546 (중대동)|00:00~24:00|공중화장실|N
만남주유소|35.9681394|128.62986840000002|이경화|-|대구광역시 동구 파계로 392 (중대동)|00:00~24:00|공중화장실|N
대구서촌초등학교|35.98040326|128.6317455|대구광역시 교육감|-|대구광역시 동구 파계로 525-11 (중대동)|00:00~24:00|공중화장실|N
대구입석초등학교|35.89069277|128.6439976|대구광역시 교육감|-|대구광역시 동구 아양로 300 (입석동)|00:00~24:00|공중화장실|N
동촌농협|35.89074402|128.64235970000001|동촌농업협동조합|-|대구광역시 동구 아양로 295 (입석동)|06:00~24:00|공중화장실|Y
동대구우체국|35.8923652|128.6442378|우체국장|-|대구광역시 동구 동촌로 1 (입석동)|09:00~17:00|공중화장실|N
동촌종합사회복지관|35.8938883|128.6449391|아시아복지재단|-|대구광역시 동구 아양로 336|00:00~24:00|공중화장실|N
대구교대 학생회관|35.85143184|128.5877407|대구교대|053-620-1114|대구광역시 남구 중앙대로 219 (대명동,1797-6)|8시간|공중화장실|N
대구교대제2강의실|35.85143184|128.5877407|대구교대|053-620-1114|대구광역시 남구 중앙대로 219 (대명동,1797-6)|8시간|공중화장실|N
대구교대복지관|35.85143184|128.5877407|대구교대|053-620-1114|대구광역시 남구 중앙대로 219 (대명동,1797-6)|8시간|공중화장실|N
대구교대 도서관|35.85104838|128.5902966|대구교대|053-620-1114|대구광역시 남구 중앙대로 199 (대명동,1797-6)|8시간|공중화장실|N
영남이공대학교 건축관|35.84716173|128.5865487|영남이공대학교|053-650-9114|대구광역시 남구 현충로 170 (대명동,1737)|8시간|공중화장실|N
이공대 목공예관|35.84716173|128.5865487|영남이공대학교|053-650-9114|대구광역시 남구 현충로 170 (대명동,1737)|8시간|공중화장실|N
영남 이공대 도서관|35.84716173|128.5865487|영남이공대학교|053-650-9114|대구광역시 남구 현충로 170 (대명동,1737)|8시간|공중화장실|N
영남이공대 공학관|35.84716173|128.5865487|영남이공대학교|053-650-9114|대구광역시 남구 현충로 170 (대명동,1737)|8시간|공중화장실|N
영남이공대 사회관|35.84716173|128.5865487|영남이공대학교|053-650-9114|대구광역시 남구 현충로 170 (대명동)|8시간|공중화장실|N
영남이공대 산학관|35.84716173|128.5865487|영남이공대학교|053-650-9114|대구광역시 남구 현충로 170 (대명동)|8시간|공중화장실|N
영남이공대 본관|35.84716173|128.5865487|영남이공대학교|053-650-9114|대구광역시 남구 현충로 170 (대명동)|8시간|공중화장실|N
영남이공대 예지관|35.84716173|128.5865487|영남이공대학교|053-650-9114|대구광역시 남구 현충로 170 (대명동,1737)|8시간|공중화장실|N
영남이공대 쉼터|35.84716173|128.5865487|영남이공대학교|053-650-9114|대구광역시 남구 현충로 170 (대명동,1737)|8시간|공중화장실|N
이공대 전기관|35.847131|128.5865487|영남이공대학교|053-650-9114|대구광역시 남구 현충로 170 (대명동,1737)|8시간|공중화장실|N
영남이공대 체육관|35.84716173|128.5865487|영남이공대학교|053-650-9114|대구광역시 남구 현충로 170 (대명동)|8시간|공중화장실|N
영남이공대 정보관|35.84716173|128.5865487|영남이공대학교|053-650-9114|대구광역시 남구 현충로 170 (대명동)|8시간|공중화장실|N
영남이공대 컴퓨터관|35.84716173|128.5865487|영남이공대학교|053-650-9114|대구광역시 남구 현충로 170 (대명동)|8시간|공중화장실|N
비젼디엔씨|35.87724144|128.7321517|비전디엔씨|-|대구광역시 동구 이노밸리로 322|09:00~17:00|공중화장실|N
코아루파크뷰|35.87902292|128.7328416|㈜한국토지신탁|-|대구광역시 동구 첨복로 33|09:00~17:00|공중화장실|N
동원LPG주유소|35.87470911|128.7390231|조삼래|-|대구광역시 동구 혁신대로 386|09:00~17:00|공중화장실|N
서원 kingmill|35.87832515|128.73048789999999|㈜세움케이앤디|-|대구광역시 동구 이노밸리로 305|09:00~17:00|공중화장실|N
동화사|36.00225583|128.7028821|동화사 주지스님|-|대구광역시 동구 동화사1길 1 (도학동)|09:00~17:00|공중화장실|Y
동구공예전시장|35.911916999999995|128.6420975|대구광역시 동구청장|-|대구광역시 동구 팔공로30길 7-2 (불로동)|09:00~17:00|공중화장실|N
도평동주민센터|35.90997576|128.65013000000002|대구광역시 동구청장|-|대구광역시 동구 팔공로24길 171 (도동)|09:00~17:00|공중화장실|N
안심공공도서관|35.859031200000004|128.70181399999998|대구광역시 동구청장|-|대구광역시 동구 금호강변로 360 (율하동)|09:00~17:00|공중화장실|N
강동노인복지회관|35.86575948|128.7058238|대구광역시 동구청장|-|대구광역시 동구 안심로 190 (신기동)|09:00~17:00|공중화장실|N
이시아폴리스 라이프스타일센터|35.9215394|128.63736200000002|주식회사하나은행|-|대구광역시 동구 팔공로49길 16 (봉무동)|09:00~17:00|공중화장실|N
대동병원|35.87640522|128.6439413|박상운|-|대구광역시 동구 화랑로 169 (효목동)|09:00~17:00|공중화장실|N
대구효목초등학교|35.87600495|128.641577|대구광역시 교육감|-|대구광역시 동구 화랑로27길 25 (효목동)|06:00~24:00|공중화장실|Y
효경병원|35.87586557|128.64254409999998|이창|-|대구광역시 동구 화랑로 157 (효목동)|09:00~17:00|공중화장실|N
이시아폴리스 태왕아너스 상가지점|35.92052117|128.6405026|㈜도원이앤씨|-|대구광역시 동구 팔공로 241 (봉무동)|09:00~17:00|공중화장실|N
한국전력공사 동대구지점|35.8748071|128.6409771|한국전력공사|-|대구광역시 동구 화랑로 135 (효목동)|09:00~17:00|공중화장실|N
일호주유소|35.873153|128.6379628|김숙희|-|대구광역시 동구 화랑로 103 (효목동)|09:00~17:00|공중화장실|N
동부허병원|35.8726473|128.6357572|허진영|-|대구광역시 동구 화랑로 81 (효목동)|09:00~17:00|공중화장실|N
효목2동주민센터|35.8781522|128.6412466|대구광역시 동구청장|-|대구광역시 동구 화랑로25길 45 (효목동)|09:00~17:00|공중화장실|N
팔공정보문화센터|35.87511048|128.6344813|대구광역시 동구청장|-|대구광역시 동구 효신로 34 (효목동)|06:00~24:00|공중화장실|N
대구지방법원|35.87893114|128.6355519|법무부|-|대구광역시 동구 동부로 212 (효목동)|00:00~24:00|공중화장실|N
데이콤경북지사|35.8794653|128.635851|㈜엘지데이콤|-|대구광역시 동구 동부로 220 (효목동)|09:00~17:00|공중화장실|N
효목주유소|35.879265999999994|128.63467350000002|박수경|-|대구광역시 동구 동부로 211 (효목동)|00:00~24:00|공중화장실|N
KT효목사옥|35.8786797|128.63356720000002|㈜케이티프리텔|-|대구광역시 동구 동부로 197 (효목동)|00:00~24:00|공중화장실|N
경북일보|35.87516976|128.6250668|황인찬|-|대구광역시 동구 동대구로 501|00:00~24:00|공중화장실|N
대구효동초등학교|35.88412597|128.6447523|대구광역시 교육감|-|대구광역시 동구 효동로 78-7 (효목동)|09:00~17:00|공중화장실|Y
대구교대제1강의동 화장실|35.85143184|128.5877407|대구교대|053-620-1114|대구광역시 남구 중앙대로 219 (대명동,1797-6)|8시간|공중화장실|N
대구교대과학관|35.85143184|128.5877407|대구교대|053-620-1114|대구광역시 남구 중앙대로 219 (대명동,1797-6)|8시간|공중화장실|N
대구교대 강당 화장실|35.85143184|128.5877407|대구교대|053-620-1114|대구광역시 남구 중앙대로 219 (대명동,1797-6)|8시간|공중화장실|N
대구일마이스터고등학교|35.88205179|128.6472206|대구광역시 교육감|-|대구광역시 동구 효동로 48 (효목동)|09:00~17:00|공중화장실|N
효목1동주민센터|35.88161420000001|128.6449448|대구광역시 동구청장|-|대구광역시 동구 화랑로41길 46 (효목동)|09:00~17:00|공중화장실|N
서문시장 5지구|35.86809048|128.5784315|5지구 번영회|-|대구광역시 중구 큰장로26길 6|09:00~18:30/휴무일 제외|개방화장실|N
대구출입국관리사무소|35.88884432|128.6499925|법무부|-|대구광역시 동구 동촌로 71|09:00~18:00|공중화장실|N
동구보건소|35.88812099|128.65123400000002|대구광역시 동구청장|-|대구광역시 동구 동촌로 79|09:00~18:00|공중화장실|N
대구송정초등학교|35.87060736|128.7340267|대구광역시 교육감|-|대구광역시 동구 안심로90길 9|09:00~18:00|공중화장실|N
공산동주민센터|35.94023401|128.6442077|대구광역시 동구청장|-|대구광역시 동구 팔공로91길 9|09:00~18:00|공중화장실|N
동부경찰서|35.87431782|128.7206442|국(경찰청)|-|대구광역시 동구 반야월북로 209|09:00~18:00|공중화장실|N
대구동부고등학교|35.87428988|128.71907140000002|학교법인 춘강교육 재단|-|대구광역시 동구 반야월북로 199|09:00~18:00|공중화장실|N
동서시장|35.887254|128.633544|시장상인회|-|대구광역시 동구 아양로37길 31-1|09:00~17:00|공중화장실|N
성동시장|35.88381833|128.630272|시장상인회|-|대구광역시 동구 아양로34길 22|09:00~17:00|공중화장실|N
사복노을근린공원 화장실|35.87724873|128.749057|대구광역시 동구청장|-|대구광역시 동구 메디밸리로 52(사복동)|09:00~17:00|공중화장실|N
동내향수근린공원 화장실|35.87783786|128.7372757|대구광역시 동구청장|-|대구광역시 동구 동내로 66-22(동내동)|00:00~24:00|공중화장실|N
신서중앙근린공원 화장실|35.88095084|128.7341237|대구광역시 동구청장|-|대구광역시 동구 동내로 117(신서동)|00:00~24:00|공중화장실|N
송호지근린공원 화장실|35.88941338|128.7054895|대구광역시 동구청장|-|대구광역시 동구 율암로 167(상매동)|00:00~24:00|공중화장실|N
팔공산자연공원12 (파계지구야영장)|35.99089789|128.637144|대구광역시장|-|대구광역시 동구 파계로 686 (중대동)|09:00~17:00|공중화장실|N
㈜신세계동대구복합환승센터(터미널)|35.87793987|128.6291892|코리안와이드터미널|-|대구광역시 동구 동부로 149 (신천동)|09:00~17:00|공중화장실|N
든든우리병원|35.88048334|128.6124811|박준우|-|대구광역시 동구 신암로 120|09:00~17:00|공중화장실|Y
반야월지하철역|35.86620949|128.71320649999998|지하철공사|-|대구광역시 동구 안심로 261(동호동)|06:00~24:00|공중화장실|N
대구도시가스(주)동호CNG충전소|35.86471972|128.71429479999998|대구도시가스|-|대구광역시 동구 경안로 700|09:00~18:00|공중화장실|N
대구방짜유기박물관|35.96545433|128.70136409999998|대구광역시|-|대구광역시 동구 도장길 29|09:00~18:00|공중화장실|Y
달구벌고등학교|35.99454187|128.6108128|학교법인 덕성학원|-|대구광역시 동구 팔공산로2길 16|06:00~24:00|공중화장실|Y
덕산주유소|35.99143172|128.61640020000002|김형숙|-|대구광역시 동구 팔공산로 283|06:00~24:00|공중화장실|Y
팔공산LPG충전소|35.99187168|128.6161164|정명수,이순옥|-|대구광역시 동구 팔공산로 279|06:00~24:00|공중화장실|Y
두바이주유소|35.8717663|128.747306|김현주|-|대구광역시 동구 안심로 586|06:00~24:00|공중화장실|N
혁신도시주유소|35.87262427|128.7381273|김완수|-|대구광역시 동구 안심로 503|06:00~24:00|공중화장실|N
송정오일뱅크|35.8723081|128.736347|김영호|-|대구광역시 동구 안심로 483|09:00~18:00|공중화장실|N
동촌우체국|35.885806|128.651282|우제국장|-|대구광역시 동구 해동로 207|09:00~18:00|공중화장실|Y
㈜부강에너지 착한주유소|35.88721022|128.6511324|한철규|-|대구광역시 동구 동촌로 86|06:00~24:00|공중화장실|Y
열경요양병원|35.88444425|128.6564226|허진영|-|대구광역시 동구 동촌로 146|09:00~18:00|공중화장실|N
지성365할인주유소|35.884319|128.657984|정세용|-|대구광역시 동구 동촌로 155|06:00~24:00|공중화장실|N
홈플러스 동촌점|35.886156|128.65566|주식회사국민은행|-|대구광역시 동구 동촌로 127|09:00~24:00|공중화장실|N
미니주유소|35.887487|128.647908|박선미|-|대구광역시 동구 해동로 171|09:00~18:00|공중화장실|Y
㈜아카데미극장|35.86999575|128.5943029|개인|-|대구광역시 중구 중앙대로 412|09:00~24:00|공중화장실|N
패션주얼리특구고객지원센터|35.87416567|128.5967594|패션주얼리고객지원팀|-|대구광역시 중구 동성로 80-15|09:00~18:00|개방화장실|N
하나은행빌딩|35.86503915|128.5941661|개인|-|대구광역시 중구 달구벌대로 2108|24시간|개방화장실|N
삼성생명빌딩(하서지점)|35.86988978|128.5883746|개인|-|대구광역시 중구 국채보상로 528|월~토 06:50~19:50/공휴일 제외|공중화장실|N
한국은행 대구경북본부|35.8679686|128.6031575|한국은행|-|대구광역시 중구 동덕로 145|05:00~20:00|개방화장실|N
종각빌딩|35.86937715|128.6044527|개인|-|대구광역시 중구 국채보상로 673|09:00~16:00|개방화장실|N
한전대구전력관리처|35.87256523|128.6014256|한전대구경북건설지사 건설지원팀|-|대구광역시 중구 공평로 96(동인동1가)|07:30~22:00|공중화장실|N
행운주유소|35.87635565|128.589518|개인|-|대구광역시 중구 태평로 105|09:00~18:00|개방화장실|N
현대백화점|35.86663023|128.5906256|개인|-|대구광역시 중구 달구벌대로 2077|06:00~24:00|개방화장실|N
㈜제일진흥|35.86832088|128.593972|개인|-|대구광역시 중구 중앙대로 394|06:00~22:00|공중화장실|N
현대증권 빌딩(SH타워)|35.86485389|128.59517240000002|개인|-|대구광역시 중구 달구벌대로 2118|평일 10:30~20:00/주말 10:30~20:30|개방화장실|N
현대캐피탈㈜대구사옥|35.86853714|128.59397620000001|개인|-|대구광역시 중구 중앙대로 398|09:00~18:00|공중화장실|N
협성교육재단 협성빌딩|35.86717603|128.5940493|개인|-|대구광역시 중구 동성로 2|07:00~19:00|개방화장실|N
대구YMCA청소년회관|35.87063056|128.5898671|개인|-|대구광역시 중구 국채보상로 541|05:00~23:00|공중화장실|N
호수빌딩|35.86935551|128.60118899999998|개인|-|대구광역시 중구 국채보상로 648|24시간|개방화장실|N
영남동창회관|35.86206085|128.582108|개인|-|대구광역시 중구 남산로 61|09:00~18:00|공중화장실|N
롯데영프라자 대구점|35.87137263|128.59473400000002|개인|-|대구광역시 중구 국채보상로 585|08:00~24:00|개방화장실|N
하나은행(구.외환은행 대구지점)|35.87141335|128.593793|개인|-|대구광역시 중구 중앙대로 429|09:00~16:00|개방화장실|N
우리은행 대구지점|35.87034114|128.59427970000002|개인|-|대구광역시 중구 중앙대로 418|09:00~16:00|개방화장실|N
우석빌딩|35.85709738|128.59256770000002|개인|-|대구광역시 중구 명덕로 203|09:00~18:00|공중화장실|N
원진빌딩|35.86897372|128.6093663|개인|-|대구광역시 중구 국채보상로 719|09:00~18:00|공중화장실|N
일광빌딩(센트럴M)-에스닷중앙로점|35.86775346|128.59389879999998|개인|-|대구광역시 중구 중앙대로 390|10:30~21:00/명절당일휴무|개방화장실|N
대암프라이빗(ZARA)|35.868596600000004|128.594558|개인|-|대구광역시 중구 동성로 17|09:00~18:00|공중화장실|N
정무빌딩|35.87357689|128.58758020000002|개인|-|대구광역시 중구 서성로 26|09:00~18:30|개방화장실|N
조양주유소|35.86265962|128.6031888|개인|-|대구광역시 중구 달구벌대로 2194|24시간|개방화장실|N
㈜유화몰|35.86694354|128.5972698|개인|-|대구광역시 중구 동성로3길 35|09:00~18:00|공중화장실|N
㈜대구백화점|35.86946137|128.5959601|개인|-|대구광역시 중구 동성로 30|평일 10:30~20:00/주말 10:30~20:30|개방화장실|N
㈜대구프뢰벨|35.86076109|128.5935141|개인|-|대구광역시 중구 명륜로 84|09:00~18:00|개방화장실|N
㈜동서개발|35.86322867|128.5754508|개인|-|대구광역시 중구 달구벌대로 1929|08:00~22:00/공휴일 제외|개방화장실|N
중구선거관리위원회|35.86606478|128.587231|위원회장|-|대구광역시 중구 달구벌대로 2042|09:00~18:00|개방화장실|N
중부경찰서|35.87188062|128.5904649|대구중부서 경무과|-|대구광역시 중구 경상감영길 55|09:00~18:00|개방화장실|N
중앙로역(1호선)|35.87097958|128.5940223|대구도시철도공사 중앙로역|-|대구광역시 중구 중앙대로 지하424|07:00~19:00|개방화장실|N
중앙파출소|35.8696387|128.588821|대구중부경찰서 생활안전과 중앙파출소|-|대구광역시 중구 중앙대로81길 88|05:20~24:00|개방화장실|N
회당빌딩|35.85580554|128.5986032|개인|-|대구광역시 중구 명덕로 261|24시간|개방화장실|N
진석타워|35.86509323|128.6026706|개인|-|대구광역시 중구 동덕로 115|09:00~18:00|공중화장실|N
코리아빌딩|35.87309393|128.59482450000002|개인|-|대구광역시 중구 교동길 6|24시간|공중화장실|N
태남빌딩|35.87058865|128.5892245|개인|-|대구광역시 중구 국채보상로 535|09:00~18:00|공중화장실|N
태왕빌딩|35.87074615|128.59018909999998|개인|-|대구광역시 중구 국채보상로 543|09:00~18:00|공중화장실|N
태평주유소|35.87558725|128.59091170000002|개인|-|대구광역시 중구 태평로 120|09:00~18:00|개방화장실|N
파일론빌딩|35.86269852|128.60263030000002|개인|-|대구광역시 중구 동덕로 91|08:00~22:00|공중화장실|N
패션주얼리전문타운|35.87177748|128.5966971|관리사무소, 중구청 도심활성화지원단|-|대구광역시 중구 경상감영길 176|09:00~18:00|개방화장실|N
상도빌딩|35.87379869|128.5998574|개인|-|대구광역시 중구 태평로 204|09:00~18:00|공중화장실|Y
서남빌딩|35.87026873|128.58090579999998|개인|-|대구광역시 중구 국채보상로 458|08:00~19:00/첫째,셋째 일요일 휴무|공중화장실|N
서문로119안전센터|35.87157637|128.5899848|서문로119안전센터|-|대구광역시 중구 경상감영길 45|24시간|개방화장실|Y
서문시장 1지구|35.86939323|128.579824|서문시장1지구 1층상인회|-|대구광역시 중구 큰장로28길 10|09:00~18:30/휴무일 제외|개방화장실|N
서문시장 5지구|35.86809048|128.5784315|5지구 번영회|-|대구광역시 중구 큰장로26길 6|09:00~18:30/휴무일 제외|개방화장실|N
신남역(청라언덕역)(2호선)|35.86490684|128.5824697|대구도시철도공사 신남역 2호선|-|대구광역시 중구 달구벌대로 지하2000|05:20~24:00|개방화장실|N
서문지구대|35.87135367|128.5839258|서문지구대|-|대구광역시 중구 국채보상로99길 12|24시간|개방화장실|N
계명대학교 동산병원|35.87017966|128.58252140000002|동산병원|-|대구광역시 중구 달성로 56|24시간|공중화장실|N
선교사 문화관광지(사택지)|35.86660785|128.5849568|중구청 관광자원과 , 동산의료원 시설환경팀|-|대구광역시 중구 달구벌대로 2029|08:00~19:00|개방화장실|N
선모빌딩|35.86037619|128.60379809999998|개인|-|대구광역시 중구 동덕로 61|09:00~18:00|공중화장실|N
섬유회관|35.87032237|128.58427350000002|개인|-|대구광역시 중구 국채보상로 488|06:00~22:00|개방화장실|N
성내1동 주민센터|35.86924714|128.5980291|성내1동 주민센터|-|대구광역시 중구 동성로3길 87|09:00~18:00|개방화장실|N
성내2동 행정복지센터|35.86838367|128.5903861|성내2동 행정복지센터|-|대구광역시 중구 달구벌대로415길 48|09:00~18:00|개방화장실|N
성내3동 행정복지센터|35.87259209|128.58572890000002|성내3동 행정복지센터|-|대구광역시 중구 서성로13길 32-10|09:00~18:00|개방화장실|N
성명여자중학교|35.86965532|128.5837421|성명여자중학교 행정실|-|대구광역시 중구 국채보상로102길 48|0|공중화장실|N
소석문화센터|35.86357944|128.60308759999998|개인|-|대구광역시 중구 달구벌대로 2191|06:00~24:00|개방화장실|N
수평빌딩(MS저축은행)|35.87015516|128.6038828|개인|-|대구광역시 중구 동덕로 173|지하1층 17:00~05:00, 1,3층 07:00~18:00|개방화장실|N
시민빌딩|35.87077887|128.579791|개인|-|대구광역시 중구 달성공원로 2|09:00~18:00|공중화장실|N
신남치안센터|35.85738851|128.5809666|중부서 남산지구대|-|대구광역시 중구 명덕로 95|09:00~18:00|개방화장실|Y
신명고등학교|35.86965532|128.5837421|신명고등학교 행정실|-|대구광역시 중구 국채보상로102길 48|0|공중화장실|N
신용보증기금 대구지점|35.87195946|128.5994567|개인|-|대구광역시 중구 경상감영길 221|0|공중화장실|N
신한빌딩|35.86531711|128.5962721|개인|-|대구광역시 중구 달구벌대로 2125|09:00~18:00|개방화장실|N
씨네시티한일빌딩|35.87049514|128.5953808|개인|-|대구광역시 중구 동성로 39|08:00~다음날02:00|개방화장실|N
ABL대구타워|35.86594946|128.5886918|개인|-|대구광역시 중구 달구벌대로 2058|24시간|개방화장실|N
약령시한의약박물관|35.86853023|128.5899179|시청 의료산업과|-|대구광역시 중구 달구벌대로415길 49|화~일 09:00~18:00/1.1,설,추석,월 휴무|개방화장실|N
약령시한의약박물관 관광안내소|35.8681384|128.589975|중구청 관광자원과|-|대구광역시 중구 남성로 27-1|화~일 09:00~18:00/1.1,설,추석,월 휴무|개방화장실|N
역전치안센터|35.87523416|128.5930907|서문지구대|-|대구광역시 중구 태평로 140|09:00~18:00|개방화장실|N
동인동 행정복지센터|35.86791133|128.60913670000002|동인동 행정복지센터|-|대구광역시 중구 국채보상로142길 19-5|09:00~18:00|개방화장실|N
동인치안센터|35.87061158|128.6045285|동덕지구대|-|대구광역시 중구 동덕로 180|09:00~18:00|개방화장실|Y
동화빌딩(MS재건병원)|35.87188056|128.6048935|개인|-|대구광역시 중구 동덕로 194|09:00~18:00|공중화장실|N
드림저축은행|35.87023078|128.60139180000002|개인|-|대구광역시 중구 국채보상로 645|09:00~18:00|개방화장실|N
로얄프레지던트 빌딩|35.8707465|128.5937659|개인|-|대구광역시 중구 중앙대로 421|09:00~18:00|공중화장실|N
메리츠화재 대구사옥|35.87100498|128.5920846|개인|-|대구광역시 중구 국채보상로 561|06:00~22:00|개방화장실|N
메트로센터상가(B2)|35.86442069|128.5933403|개인|-|대구광역시 중구 달구벌대로 지하2100|24시간|개방화장실|N
메트로프라자|35.86446924|128.5980972|개인|-|대구광역시 중구 달구벌대로 지하 2160(봉산동)|24시간|개방화장실|N
명덕역(1호선)|35.857988299999995|128.5911518|대구도시철도공사 명덕역|-|대구광역시 중구 명덕로 지하185|05:20~24:00|개방화장실|N
몰디브코리아|35.86800411|128.5960597|개인|-|대구광역시 중구 동성로5길 25|09:00~18:00|공중화장실|N
미도빌딩|35.87068045|128.59436340000002|개인|-|대구광역시 중구 국채보상로 582|08:00~23:00|공중화장실|N
미르치과병원|35.86489322|128.60009399999998|개인|-|대구광역시 중구 공평로 12|09:00~18:00|개방화장실|N
미주빌딩|35.87838379|128.5814179|개인|-|대구광역시 중구 태평로 290|09:00~18:00|공중화장실|N
공평빌딩|35.86799747|128.5981525|개인|-|대구광역시 중구 동성로3길 62|09:00~18:00|공중화장실|N
반월 메디컬센터 빌딩|35.865082|128.5927934|개인|-|대구광역시 중구 중앙대로 359|0|공중화장실|N
반월타워|35.86459179|128.5989352|개인|-|대구광역시 중구 달구벌대로 2149|09:00~18:00|공중화장실|N
번개시장|35.87521676|128.5974539|개인|-|대구광역시 중구 태평로 177-2|09:00~18:00|개방화장실|N
보람빌딩|35.85792674|128.5906996|개인|-|대구광역시 중구 중앙대로 273|09:00~18:00|공중화장실|N
봉산문화회관|35.86339742|128.5965568|봉산문화회관|-|대구광역시 중구 봉산문화길 77|문화강좌시간에 따라 다름|개방화장실|N
㈜태산이앤엘 감영셀프주유소|35.875506|128.59171940000002|개인|-|대구광역시 중구 태평로 130|06:00~23:00|개방화장실|N
분홍빛으로 병원|35.8671813|128.6033993|개인|-|대구광역시 중구 동덕로 141|06:00~24:00|개방화장실|N
삼덕119안전센터|35.86718777|128.59967460000001|삼덕119안전센터|-|대구광역시 중구 공평로 35|24시간|개방화장실|N
삼덕동 행정복지센터|35.86552382|128.6089412|삼덕동 행정복지센터|-|대구광역시 중구 달구벌대로447길 72-11|09:00~18:00|개방화장실|N
동덕지구대|35.86808032|128.6060263|동덕지구대|-|대구광역시 중구 국채보상로140길 16|24시간|개방화장실|N
삼성빌딩|35.86572995|128.6002393|개인|-|대구광역시 중구 공평로 20|0|공중화장실|N
삼성생명빌딩(덕산지점)|35.86631676|128.59279809999998|개인|-|대구광역시 중구 달구벌대로 2095|06:00~22:00|개방화장실|N
삼영빌딩|35.86548270000001|128.59549840000003|개인|-|대구광역시 중구 달구벌대로 2117|09:00~18:00|공중화장실|N
삼희빌딩|35.86368171|128.5988784|개인|-|대구광역시 중구 달구벌대로 2156|06:00~21:30|공중화장실|N
대구종로초등학교|35.87249623|128.5897066|종로초등학교 행정실|-|대구광역시 중구 경상감영길 49|0|공중화장실|N
대구초등학교|35.8640369|128.5953696|대구초등학교 행정실|-|대구광역시 중구 명륜로23길 80|0|공중화장실|N
대백프라자|35.85571524|128.6063973|개인|-|대구광역시 중구 명덕로 333|평일 10:30~20:00/주말 10:30~20:30|개방화장실|N
대봉1동 주민센터|35.86154491|128.6043818|대봉1동 주민센터|-|대구광역시 중구 달구벌대로440길 27|09:00~19:00(1~2층) / 09:00~18:00(3~4층)|개방화장실|N
대봉2동 주민센터|35.85876069|128.5993685|대봉2동 주민센터|-|대구광역시 중구 대봉로47길 31|09:00~18:00|개방화장실|N
대봉치안센터|35.8603136|128.600519|동덕지구대|-|대구광역시 중구 명륜로 152|09:00~18:00|개방화장실|Y
대성빌딩|35.85759705|128.5807134|개인|-|대구광역시 중구 명덕로 91|09:00~18:00|공중화장실|N
미래에셋증권(대성빌딩)|35.86466939|128.5960236|개인|-|대구광역시 중구 달구벌대로 2126|09:00~18:00|개방화장실|N
대명주유소|35.85822521|128.57942260000002|개인|-|대구광역시 중구 명덕로 79|06:00~23:00|개방화장실|N
대신119안전센터|35.86890863|128.580774|대신119안전센터|-|대구광역시 중구 큰장로26길 45|24시간|개방화장실|N
대신동 주민센터|35.86557684|128.5763426|대신동 주민센터|-|대구광역시 중구 달구벌대로389길 50|09:00~21:00|개방화장실|N
으뜸병원|35.87006531|128.5893568|개인|-|대구광역시 중구 국채보상로 536|09:00~18:00|공중화장실|N
대신지하상가|35.870523399999996|128.5810535|대구시설공단 지하상가|-|대구광역시 중구 국채보상로 지하 470(대신동)|라열 11호 옆 05:00~24:00/가열 87호 옆 24시간|개방화장실|N
서문치안센터|35.86959766|128.57936170000002|서문지구대|-|대구광역시 중구 큰장로28길 2|09:00~18:00|개방화장실|Y
대우빌딩|35.87470777|128.5952684|개인|-|대구광역시 중구 태평로 160|09:00~18:00|개방화장실|N
대한내과|35.85989636|128.59158100000002|개인|-|대구광역시 중구 중앙대로 297|평일 06:00~18:00/토,공휴일 06:00~13:00/일 휴무|공중화장실|N
한화생명빌딩|35.86936059|128.6005768|개인|-|대구광역시 중구 공평로 60|09:00~18:00|개방화장실|N
대한적십자사 경북지사|35.86487855|128.58835|총무팀|-|대구광역시 중구 명륜로 16|09:00~18:00/토,공휴일 휴무|개방화장실|N
대한적십자사혈액원|35.87512933|128.5920223|대구경북혈액원 총무팀|-|대구광역시 중구 태평로 7|09:00~18:00|개방화장실|N
대현프리몰|35.87083862|128.5951962|개인|-|대구광역시 중구 국채보상로 지하 580(동성로2가)|05:00~24:00|개방화장실|N
더락 멀티플렉스|35.87019011|128.5969067|개인|-|대구광역시 중구 동성로2길 95|09:00~22:00|개방화장실|N
동산빌딩|35.86594229999999|128.5827787|개인|-|대구광역시 중구 달성로 10|09:00~18:00|공중화장실|N
동산상가|35.86894887|128.5817156|동산상가번영회 사무실|-|대구광역시 중구 큰장로26길 65|09:00~18:00|공중화장실|N
동성로 타워빌딩|35.86656986|128.5944814|개인|-|대구광역시 중구 동성로1길 16|06:00~24:00|공중화장실|N
동성프라자건물|35.86938624|128.5950871|개인|-|대구광역시 중구 동성로 25|09:00~18:00|공중화장실|N
동아백화점 본점|35.87261357|128.5968936|개인|-|대구광역시 중구 경상감영길 171|10:30~20:00|개방화장실|N
동아백화점 쇼핑점|35.86632147|128.5918504|개인|-|대구광역시 중구 달구벌대로 2085|10:30~20:00|개방화장실|N
동양금융센터|35.86538292|128.59208700000002|개인|-|대구광역시 중구 달구벌대로 2090|09:00~18:00|개방화장실|N
대구계성초등학교|35.86607562|128.5815807|계성초등학교 행정실|-|대구광역시 중구 달성로 15|0|공중화장실|N
대구광역시 중구청|35.86932522|128.60615719999998|중구청 행정지원과|-|대구광역시 중구 국채보상로139길 1|09:00~18:00/야외 24시간 개방|개방화장실|N
대구광역시 청사|35.87154733|128.60121999999998|대구광역시청 총무과|-|대구광역시 중구 공평로 88|09:00~18:00|개방화장실|N
대구광역시립중앙도서관|35.86844014|128.6017503|대구광역시립중앙도서관 총무과|-|대구광역시 중구 공평로10길 25|07:00~22:00|개방화장실|N
대구콘서트하우스|35.8760646|128.5936973|대구콘서트하우스 관리과|-|대구광역시 중구 태평로 141|09:00~22:00|개방화장실|N
대구근대역사관|35.87179591|128.59116029999998|시장(문화예술회관 전시운영과)|-|대구광역시 중구 경상감영길 67|09:00~19:00/동절기 09:00~18:00|개방화장실|N
대구남산4동우체국|35.86377379|128.5820209|남산4동 우체국|-|대구광역시 중구 남산로 79|09:00~18:00|개방화장실|Y
대구남산동우체국|35.85734341|128.590192|대구남산동우체국|-|대구광역시 중구 중앙대로 265|09:00~18:00|개방화장실|N
대구남산초등학교|35.86324744|128.5827598|대구남산초등학교|-|대구광역시 중구 남산로 70|0|공중화장실|N
대구달성동우체국|35.87664454|128.5783277|대구달성동우체국|-|대구광역시 중구 달성공원로 74|09:00~18:00|개방화장실|N
대구대봉동우체국|35.85860065|128.60164699999999|대구대봉동우체국|-|대구광역시 중구 대봉로 224|09:00~18:00|개방화장실|N
대성에너지㈜남산동사옥|35.85785155|128.580266|개인|-|대구광역시 중구 명덕로 85|09:00~18:00|공중화장실|N
대구동덕초등학교|35.86473435|128.6046499|동덕초등학교 행정실|-|대구광역시 중구 동덕로26길 20|0|공중화장실|N
대구동부교육지원청|35.86408949|128.59117709999998|동부교육지원청 행정지원과|-|대구광역시 중구 관덕정길 35|09:00~18:00|개방화장실|N
대구동인동우체국|35.86968078|128.603556|개인|-|대구광역시 중구 동덕로 167|09:00~18:00|개방화장실|N
대구동인초등학교|35.86808366|128.60950659999997|동인초등학교 행정실|-|대구광역시 중구 국채보상로 728|0|공중화장실|N
대구명덕초등학교|35.85753902|128.58902700000002|명덕초등학교 행정실|-|대구광역시 중구 남산로2길 125|0|공중화장실|N
대구삼덕동우체국|35.8660409|128.6096203|대구삼덕동우체국|-|대구광역시 중구 동덕로30길 108|09:00~18:00|개방화장실|Y
대구삼덕초등학교|35.86356446|128.6078431|대구삼덕초등학교 행절실|-|대구광역시 중구 달구벌대로447길 10|0|공중화장실|N
대구수창초등학교|35.87424935|128.583444|수창초등학교 행정실|-|대구광역시 중구 달성로22길 30|0|공중화장실|N
대구시청 작은도서관|35.87158732|128.6004829|대구광역시청 총무과|-|대구광역시 중구 공평로 83|09:00~19:00|개방화장실|N
대구시티센터|35.87094134|128.5981079|개인|-|대구광역시 중구 국채보상로 611|07:00~22:00|개방화장실|N
대구역전우체국|35.87484668|128.5976433|대구역전우체국|-|대구광역시 중구 태평로 177|24시간|개방화장실|N
대구우체국|35.87143012|128.5918219|대구우체국|-|대구광역시 중구 경상감영길 80|09:00~18:00|개방화장실|N
대구은행 북성로지점|35.87401351|128.5874227|개인|-|대구광역시 중구 서성로 81|09:00~16:00|공중화장실|N
대구은행 중앙로지점|35.87121512|128.59378049999998|개인|-|대구광역시 중구 중앙대로 425|09:00~16:00|개방화장실|N
대구제일중학교|35.86154603|128.5970936|제일중학교 행정실|-|대구광역시 중구 명륜로23길 16|0|공중화장실|N
성신직업전문학교|35.86921438|128.59014380000002|성신직업전문학교|-|대구광역시 중구 달구벌대로415길 55|0|공중화장실|N
계성빌딩|35.86845257|128.5818337|개인|-|대구광역시 중구 달성로 37|09:00~18:00|공중화장실|N
계성중학교|35.86793508|128.5802492|계성중학교 행정실|-|대구광역시 중구 달성로 35|0|공중화장실|N
곽병원|35.87083012|128.5886768|개인|-|대구광역시 중구 국채보상로 531|24시간|개방화장실|N
교동시장 공중화장실|35.87286661|128.59699479999998|중구청 일자리경제과|-|대구광역시 중구 동성로 70-18|24시간|개방화장실|N
교보생명 동성로사옥|35.87059708|128.59481680000002|개인|-|대구광역시 중구 국채보상로 586|09:00~22:00|개방화장실|N
교원빌딩|35.86567687|128.5946138|개인|-|대구광역시 중구 달구벌대로 2109|09:00~16:00|개방화장실|N
동인느티나무도서관|35.87131912|128.6072027|중구청 문화개발과|-|대구광역시 중구 동덕로38길 47|평일 09:00~19:00/야간(월,수) 09:00~21:00/토 10:00~14:00/일 휴관|개방화장실|N
국민은행 남산동지점|35.86165054|128.59226950000001|개인|-|대구광역시 중구 명륜로 69|09:00~16:00|공중화장실|N
국민은행 대구지점|35.86887363|128.593412|개인|-|대구광역시 중구 중앙대로 401|09:00~16:00|개방화장실|N
국제빌딩|35.86842904|128.59581210000002|개인|-|대구광역시 중구 동성로2길 49-18|09:00~18:00|공중화장실|N
국채보상운동기념공원|35.86833404|128.6034536|대구시설공단 도심공원|-|대구광역시 중구 국채보상로 670|24시간|개방화장실|N
국채보상운동기념관|35.86833404|128.6034536|국채보상운동기념사업회|-|대구광역시 중구 국채보상로 670|하절기(09~18),동절기(09~17), 매주월,신정,설,추석 휴관|개방화장실|N
금복개발 ㈜덕산지점|35.86579667|128.5940832|개인|-|대구광역시 중구 달구벌대로 2105|09:00~18:00|공중화장실|N
금복개발 ㈜삼덕지점|35.86344252|128.6034442|개인|-|대구광역시 중구 달구벌대로 2195|09:00~18:00|공중화장실|N
남문치안센터|35.8586919|128.58859089999999|중부서 남산지구대|-|대구광역시 중구 명덕로35길 41|09:00~18:00|개방화장실|Y
대구중부소방서(남산119안전센터)|35.86257958|128.57524679999997|중부소방서|-|대구광역시 중구 달구벌대로 1926|09:00~18:00|개방화장실|N
남산1동 주민센터|35.859352200000004|128.5904366|남산1동 주민센터|-|대구광역시 중구 2·28길 18-15(남산동)|09:00~18:00|개방화장실|N
남산2동 주민센터|35.86408839|128.5895749|남산2동 주민센터|-|대구광역시 중구 명륜로 27-1|09:00~18:00|개방화장실|N
남산3동 행정복지센터|35.85991692|128.58555790000003|남산3동 행정복지센터|-|대구광역시 중구 남산로4길 70|09:00~18:00|개방화장실|N
남산4동 행정복지센터|35.85822865|128.58057409999998|남산4동 행정복지센터|-|대구광역시 중구 남산로1길 42|09:00~18:00|개방화장실|N
남산병원|35.86148489|128.58191000000002|개인|-|대구광역시 중구 남산로13길 9|24시간|공중화장실|N
남산지구대|35.86606266|128.5876628|중부서 남산지구대|-|대구광역시 중구 달구벌대로 2048|09:00~18:00|개방화장실|N
달성공원|35.87339884|128.5759201|달성공원 관리사무소|-|대구광역시 중구 달성공원로 35|09:00~21:00|개방화장실|N
달성빌딩|35.87334425|128.5806224|개인|-|대구광역시 중구 달성공원로8길 10|09:00~18:00|공중화장실|N
대구가톨릭대학교|35.86133303|128.5875131|대구가톨릭대학교 대신학원|-|대구광역시 중구 명륜로12길 47|0|공중화장실|N
대구경북여자고등학교|35.85842696|128.59220190000002|경북여자고등학교|-|대구광역시 중구 중앙대로 288|0|공중화장실|N
구.대구경북지방 병무청|35.87132335|128.5922606|개인|-|대구광역시 중구 경상감영길 90|0|공중화장실|N
경북대학 사범대학 부설중학교|35.86253967|128.6006179|부설중학교 행정실|-|대구광역시 중구 달구벌대로 2178|0|공중화장실|N
경북대학교 동인캠퍼스(의과대)|35.867839399999994|128.6040547|행정실|-|대구광역시 중구 국채보상로 680|0|공중화장실|N
경북대학교 사범대학 부설고등학교|35.86253967|128.6006179|부설고등학교 행정실|-|대구광역시 중구 달구벌대로 2178|0|공중화장실|N
경북대학교 치과대학|35.864227|128.60167040000002|치과대학 행정실|-|대구광역시 중구 달구벌대로 2177|0|공중화장실|N
경북대학교 치과병원|35.86389445|128.6013992|총무과|-|대구광역시 중구 달구벌대로 2175|09:00~18:00|개방화장실|N
경북대학교사범대학 부설초등학교|35.86358293|128.59806609999998|부설초등학교 행정실|-|대구광역시 중구 달구벌대로 2150|0|공중화장실|N
경북대학병원|35.866235499999995|128.6043147|병원 관리시설팀|-|대구광역시 중구 동덕로 130|09:00~18:00|개방화장실|N
경상감영공원|35.87267548|128.59168540000002|대구시설공단 도심공원|-|대구광역시 중구 경상감영길 99|24시간|개방화장실|N
청소년문화의집|35.86551370000001|128.5486315|대구광역시청|-|대구광역시 서구 국채보상로34길 48-1|09:00-18:00|개방화장실|N
이현119안전센터|35.869085999999996|128.544157|이현119안전센터|-|대구광역시 서구 국채보상로 119|24시간|개방화장실|N
서부소방서|35.881886|128.55439099999998|서부소방서|-|대구광역시 서구 달서천로 186|24시간|개방화장실|N
서부수도사업소|35.8651265|128.5487479|서부수도사업소|-|대구광역시 서구 국채보상로34길 48|09:00-18:00|개방화장실|N
한국염색기술연구소|35.88198993|128.54412040000003|한국염색기술연구소|-|대구광역시 서구 달서천로 92|09:00-18:00|개방화장실|N
한국섬유개발연구원|35.86820659|128.5460932|한국섬유개발연구원|-|대구광역시 서구 국채보상로 136|09:00-18:00|개방화장실|N
대구의료원|35.859602|128.5385415|대구의료원|-|대구광역시 서구 평리로 157|24시간|개방화장실|N
한국전력 서대구지점|35.869863|128.57056699999998|한국전력 서대구지점|-|대구광역시 서구 달서로 85|09:00-18:00|개방화장실|N
내당119안전센터|35.859439|128.55529040000002|내당119안전센터|-|대구광역시 서구 서대구로3길 16|24시간|개방화장실|N
서구보건소|35.87232184|128.55922040000002|대구광역시 서구청|-|대구광역시 서구 국채보상로 257|09:00-18:00|개방화장실|N
공단역|35.89180916|128.55365749999999|대구도시철도공사|-|대구광역시 서구 팔달로 28|24시간|개방화장실|N
원대역|35.887713|128.57439340000002|대구도시철도공사|-|대구광역시 서구 팔달로 224-2|24시간|개방화장실|N
북구청역|35.88398239|128.5813653|대구도시철도공사|-|대구광역시 서구 원대로 71|24시간|개방화장실|N
내당4동 행정복지센터|35.860745|128.5514497|대구광역시 서구청|-|대구광역시 서구 서대구로7길 46|09:00-18:00|개방화장실|N
서대구우체국|35.866826|128.5551885|서대구우체국|-|대구광역시 서구 서대구로 97|09:00-18:00|개방화장실|N
비원건강증진센터|35.886895700000004|128.5586343|대구광역시 서구청|-|대구광역시 서구 서대구로 330|09:00-18:00|개방화장실|N
비원도서관|35.88609089|128.5692882|대구광역시 서구청|-|대구광역시 서구 달서천로61안길 10|09:00-18:00|개방화장실|N
원고개도서관|35.88187546|128.5707951|대구광역시 서구청|-|대구광역시 서구 달서로43길 12|09:00-18:00|개방화장실|N
비산6동 행정복지센터|35.876308|128.5690951|대구광역시 서구청|-|대구광역시 서구 문화로67길 3|09:00-18:00|개방화장실|N
비산7동 행정복지센터|35.88795717|128.55355600000001|대구광역시 서구청|-|대구광역시 서구 염색공단로5길 4|09:00-18:00|개방화장실|N
평리1동 행정복지센터|35.87559726|128.563298|대구광역시 서구청|-|대구광역시 서구 문화로 280|09:00-18:00|개방화장실|N
평리2동 행정복지센터|35.871241|128.56368799999998|대구광역시 서구청|-|대구광역시 서구 국채보상로60길 6|09:00-18:00|개방화장실|N
평리3동 행정복지센터|35.875923|128.56131100000002|대구광역시 서구청|-|대구광역시 서구 문화로 261|09:00-18:00|개방화장실|N
서구청|35.87232184|128.55922040000002|대구광역시 서구청|-|대구광역시 서구 국채보상로 257|24시간|개방화장실|N
평리4동 행정복지센터|35.867358|128.5567977|대구광역시 서구청|-|대구광역시 서구 국채보상로46길 37-3|09:00-18:00|개방화장실|N
평리5동 행정복지센터|35.873789|128.548766|대구광역시 서구청|-|대구광역시 서구 서대구로37길 48|09:00-18:00|개방화장실|N
평리6동 행정복지센터|35.87519337|128.548275|대구광역시 서구청|-|대구광역시 서구 당산로86길 13|09:00-18:00|개방화장실|N
원대동 행정복지센터|35.886815999999996|128.5743962|대구광역시 서구청|-|대구광역시 서구 달서로55길 5|09:00-18:00|개방화장실|N
상중이동 행정복지센터|35.86697716|128.54611359999998|대구광역시 서구청|-|대구광역시 서구 당산로 343|09:00-18:00|개방화장실|N
서구종합사회복지관|35.861036|128.563348|대구광역시 서구청|-|대구광역시 서구 달구벌대로365길 3|09:00-18:00|개방화장실|N
서구장애인재활센터|35.86427185|128.5704798|대구광역시 서구청|-|대구광역시 서구 달서로5길 10|09:00-18:00|개방화장실|N
서구지역자활센터|35.863442|128.56997900000002|대구광역시 서구청|-|대구광역시 서구 달구벌대로377길 12-10|09:00-18:00|개방화장실|N
서구노인복지회관|35.875509|128.564088|대구광역시 서구청|-|대구광역시 서구 문화로 288|09:00-18:00|개방화장실|N
서구청소년수련관|35.873635|128.54547659999997|대구광역시 서구청|-|대구광역시 서구 문화로 122|06:00-21:00|개방화장실|N
서구제일사회복지관|35.885746999999995|128.578869|대구광역시 서구청|-|대구광역시 서구 옥산로6길 9|09:00-18:00|개방화장실|N
평산지구대|35.873348|128.5714816|대구서부경찰서|-|대구광역시 서구 달서로26길 1|24시간|개방화장실|N
이현지구대|35.869035|128.543968|대구서부경찰서|-|대구광역시 서구 국채보상로 117|24시간|개방화장실|N
대구서부경찰서|35.87182807|128.5584532|대구서부경찰서|-|대구광역시 서구 국채보상로 249|24시간|개방화장실|N
서도지구대|35.87099967|128.559526|대구서부경찰서|-|대구광역시 서구 국채보상로 260|24시간|개방화장실|N
서문우체국|35.867967|128.57713999999999|서문우체국|-|대구광역시 서구 큰장로 101|09:00-18:00|개방화장실|N
비산우체국|35.87629697|128.57098100000002|비산우체국|-|대구광역시 서구 달서로 157|09:00-18:00|개방화장실|N
비산7동우체국|35.888393|128.560675|비산7동우체국|-|대구광역시 서구 서대구로 358|09:00-18:00|개방화장실|N
비산1동 행정복지센터|35.881157|128.5689696|대구광역시 서구청|-|대구광역시 서구 북비산로65길 18|09:00-18:00|개방화장실|N
비산119안전센터|35.880452000000005|128.572044|비산119안전센터|-|대구광역시 서구 달서로 206|24시간|개방화장실|N
서구 구민건강증진센터|35.88016031|128.572445|대구광역시 서구청|-|대구광역시 서구 북비산로71길 7|09:00-18:00|개방화장실|N
금호강 하천변 화장실|35.877086|128.66204399999998|대구광역시 동구청장|-|-|00:00~24:00|공중화장실|N
금호강 하천변 화장실|35.874765000000004|128.66439499999998|대구광역시 동구청장|-|-|00:00~24:00|공중화장실|N
불로천 화장실|35.908637|128.646165|대구광역시 동구청장|-|-|00:00~24:00|공중화장실|N
동화천 화장실|35.946469|128.63709599999999|대구광역시 동구청장|-|-|00:00~24:00|공중화장실|N
레일카페 화장실|35.86259146|128.737239|대구광역시 동구청장|-|-|09:00~17:00|공중화장실|N
대한노인회 동구지회|35.878391|128.675223|대한노인회 동구지회장|-|대구광역시 동구 신평동 783-11|09:00~17:00|공중화장실|N
DTC섬유박물관(대구경제자유구역청)|35.91910021|128.640296|DTC섬유박물관장|-|-|09:00~17:00|공중화장실|N
신천도서관|35.871472|128.617757|신천도서관장|-|-|09:00~17:00|공중화장실|N
대구선 동촌공원|35.876033|128.687252|대구광역시 동구청장|-|-|09:00~17:00|공중화장실|N
대구선 반야월공원(역사도서관)|35.872504|128.724961|대구광역시 동구청장|-|-|09:00~17:00|공중화장실|N
상리공원|35.86279245|128.5331595|대구광역시 서구청|-|대구광역시 서구 평리로17길 45|24시간|개방화장실|N
내당역|35.88050285|128.5682567|대구도시철도공사|-|대구광역시 서구 통학로46길 45-4|24시간|개방화장실|N
원고개시장|35.880524|128.5682567|대구광역시 서구청|-|대구광역시 서구 통학로46길 45-4|24시간|개방화장실|N
두류1번가|35.8580794|128.5571213|대구광역시청|-|대구광역시 서구 달구벌대로 1760|06:00-24:00|개방화장실|N
구민운동장|35.873625|128.542871|대구광역시 서구청|-|대구광역시 서구 이현동 152-1|24시간|개방화장실|N
달서천복개도로 남편|35.884405|128.566229|대구광역시 서구청|-|대구광역시 서구 비산동 970-7|24시간|개방화장실|N
감삼테니스장|35.858654|128.55218190000002|대구광역시 서구청|-|대구광역시 서구 서대구로3길 43|08:00-20:00|개방화장실|N
서부도서관|35.87245023|128.5577302|대구광역시청|-|대구광역시 서구 국채보상로49길 12|07:00-22:00|개방화장실|N
내당1동 행정복지센터|35.860662|128.56069209999998|대구광역시 서구청|-|대구광역시 서구 서대구로4길 35|09:00-18:00|개방화장실|N
내당2.3동 행정복지센터|35.867271|128.574556|대구광역시 서구청|-|대구광역시 서구 큰장로15길 11-1|09:00-18:00|개방화장실|N
내당4동 행정복지센터|35.858953|128.5516436|대구광역시 서구청|-|대구광역시 서구 서대구로3길 46|09:00-18:00|개방화장실|N
노인복지관|35.858953|128.5516436|대구광역시 서구청|-|대구광역시 서구 서대구로3길 46|09:00-18:00|개방화장실|N
비산2.3동 행정복지센터|35.875830799999996|128.5747396|대구광역시 서구청|-|대구광역시 서구 국채보상로81길 43|09:00-18:00|개방화장실|N
비산4동 행정복지센터|35.86975414|128.574301|대구광역시 서구청|-|대구광역시 서구 국채보상로78길 29-4|09:00-18:00|개방화장실|N
비산5동 행정복지센터|35.886357000000004|128.569663|대구광역시 서구청|-|대구광역시 서구 달서천로65길 17|09:00-18:00|개방화장실|N
연생태관화장실|35.864218|128.737165|대구광역시 동구청장|-|-|09:00~17:00|공중화장실|N
연갤러리화장실|35.869001000000004|128.743566|대구광역시 동구청장|-|-|09:00~17:00|공중화장실|N
코스트코|35.876809|128.72994|코스트코|-|대구광역시 동구 첨단로 1|09:00~20:00|공중화장실|N
㈜미도힐즈|35.8865925|128.652377|관리사무소|-|-|09:00~17:00|공중화장실|N
㈜오케이에너지|35.878425|128.70841399999998|현장소장|-|-|09:00~17:00|공중화장실|N
금호강 하천변 화장실|35.894589|128.633744|대구광역시 동구청장|-|-|00:00~24:00|공중화장실|N
대구반야월초등학교|35.86827367|128.7107622|대구광역시 교육감|-|대구광역시 동구 안심로49길 70|09:00~17:00|공중화장실|N
대구숙천초등학교|35.8769766|128.7533069|대구광역시 교육감|-|대구광역시 동구 숙천로 17|06:00~24:00|공중화장실|N
반야월종합시장|35.8724248|128.70242009999998|시장상인회|-|대구광역시 동구 율하동로 143|09:00~17:00|공중화장실|N
신기지하철역|35.86827367|128.7107622|지하철공사|-|대구광역시 동구 안심로 159(신기동)|09:00~17:00|공중화장실|N
안심1동주민센터|35.870390500000006|128.7021131|대구광역시 동구청장|-|대구광역시 동구 율하동로 121|06:00~24:00|공중화장실|Y
신기중학교|35.86816599|128.7023592|대구광역시 교육감|-|대구광역시 동구 율하동로 88|09:00~17:00|공중화장실|N
안심근린공원|35.866808|128.702901|대구광역시 동구청장|-|대구광역시 동구 율하동로 20길|09:00~17:00|공중화장실|N
팔공노인복지회관|35.8874423|128.63099540000002|대구광역시 동구청장|-|대구광역시 동구 동북로 393|09:00~17:00|공중화장실|N
소망어린이공원|35.870391|128.702113|대구광역시 동구청장|-|대구광역시 동구 신기동 595|09:00~17:00|공중화장실|Y
대구교육연수원|35.8724248|128.70242009999998|대구광역시교육감|-|대구광역시 동구 율하동로 143|09:00~17:00|공중화장실|N
대원석유㈜ 대신주유소|35.87019641|128.7297797|조재환|-|대구광역시 동구 안심로 421|09:00~17:00|공중화장실|N
이마트 반야월점|35.8708661|128.7274592|주식회사신세계대표이사황경규|-|대구광역시 동구 안심로 389-2|09:00~17:00|공중화장실|N
불로전통시장|35.91040163|128.6419419|대구광역시 동구청장|-|대구광역시 동구 팔공로26길 9-1|06:00~24:00|공중화장실|Y
불로봉무동우체국|35.92013993|128.6385937|우체국장|-|대구광역시 동구 팔공로47길 22|09:00~17:00|공중화장실|Y
금호강주유소|35.9002891|128.62974|(주)에스제이에너지|-|대구광역시 동구 공항로 136|09:00~17:00|공중화장실|Y
안심중학교|35.90114352|128.6309584|대구광역시 교육감|-|대구광역시 동구 안심로 237 안심중학교|09:00~17:00|공중화장실|Y
현대우성오일뱅크|35.86577692|128.7114392|김준영|-|대구광역시 동구 안심로 244|06:00~24:00|공중화장실|N
안심3,4동주민센터|35.87031838|128.7109479|대구광역시 동구청장|-|대구광역시 동구 안심로49길 98|09:00~17:00|공중화장실|N
도동측백수림|35.99454187|128.6108128|대구광역시 동구청장|-|대구광역시 동구 도동 470-1|09:00~18:00|공중화장실|N
동원주유소|35.91925526|128.6473981|한상배|-|대구광역시 동구 봉무동|09:00~17:00|공중화장실|N
대한주유소|35.928304100000005|128.6411375|강성근|-|대구광역시 동구 팔공로 329 (봉무동)|06:00~24:00|공중화장실|N
불로봉무동주민센터|35.9103078|128.6392874|대구광역시 동구청장|-|대구광역시 동구 팔공로25길 16|09:00~17:00|공중화장실|N
봉무공원1|35.92017148|128.649974|대구광역시 동구청장|-|대구광역시 동구 팔공로50길 66 (봉무동)|06:00~24:00|공중화장실|N
봉무공원2|35.92017148|128.649974|대구광역시 동구청장|-|대구광역시 동구 팔공로50길 66 (봉무동)|00:00~24:00|공중화장실|N
봉무공원3|35.92017148|128.649974|대구광역시 동구청장|-|대구광역시 동구 팔공로50길 66 (봉무동)|00:00~24:00|공중화장실|N
봉무공원4|35.92017148|128.649974|대구광역시 동구청장|-|대구광역시 동구 팔공로50길 66 (봉무동)|00:00~24:00|공중화장실|N
봉무공원주차장|35.93576399|128.6442392|대구광역시 동구청장|-|-|00:00~24:00|공중화장실|N
해안초등학교 본관|35.93576399|128.6442392|대구광역시 교육감|-|대구광역시 동구 금강동 1004-1|00:00~24:00|공중화장실|N
불로중학교|35.89617884|128.68302409999998|대구광역시 교육감|-|대구광역시 동구 대림동 728|09:00~17:00|공중화장실|N
대구불로초등학교|35.89828|128.634408|대구광역시 교육감|-|대구광역시 동구 검사동 990-41|09:00~17:00|공중화장실|N
불로치안센터|35.897486|128.6335014|대구동부경찰서장|-|대구광역시 동구 율암동 1131외 2필지|09:00~17:00|공중화장실|N
해안주유소|35.9131734|128.64078429999998|정정현|-|대구광역시 동구 팔공로 157|09:00~18:00|공중화장실|Y
수성치안센터|35.85288281|128.618682|수성치안센터|053-763-0113|대구광역시 수성구 들안로54길 26 (수성동3가)|09:00~18:00|개방화장실|N
파티마여성병원|35.842848|128.698391|파티마여성병원|053-790-9488|대구광역시 수성구 달구벌대로 3119 (시지동)|09:00~18:00|공중화장실|N
연호주유소|35.846558|128.671166|연호주유소|053-791-9211|대구광역시 수성구 달구벌대로 2858 (연호동)|06:00~23:00|공중화장실|N
수성셀프주유소|35.842887|128.678626|수성셀프주유소|053-247-0051|대구광역시 수성구 달구벌대로 2938 (연호동)|06:00~23:00|공중화장실|N
그린주유소|35.845182|128.675543|그린주유소|053-792-0891|대구광역시 수성구 달구벌대로 2899 (연호동)|06:00~23:00|공중화장실|N
연호게이트볼장|35.847504|128.672134|연호게이트볼장|053-666-2183|대구광역시 수성구 달구벌대로569길 10 (연호동)|09:00~18:00|개방화장실|N
대구매호초등학교|35.841592999999996|128.7121173|대구매호초등학교|053-790-1906|대구광역시 수성구 달구벌대로647길 30 (매호동)|08:30~16:30|공중화장실|N
매호중학교|35.843921|128.702296|매호중학교|053-232-7391|대구광역시 수성구 천을로 106 (매호동)|09:00~18:00|공중화장실|N
노변주유소|35.84158466|128.70042990000002|노변주유소|053-791-5493|대구광역시 수성구 달구벌대로 3142 (노변동)|05:30~24:00|공중화장실|N
대구자연과학고|35.83578109|128.7007108|대구자연과학고|053-231-8014|대구광역시 수성구 달구벌대로 3170|09:00~18:00|공중화장실|N
노변중학교|35.83808768|128.694362|노변중학교|053-232-8040|대구광역시 수성구 시지로 66 (노변동)|09:00~18:00|공중화장실|N
청림초등학교|35.83563518|128.7033769|청림초등학교|053-232-5166|대구광역시 수성구 고산로 51(노변동)|09:00~18:00|공중화장실|N
청곡종합사회복지관|35.83759349|128.69846529999998|청곡종합사회복지관|053-791-9411|대구광역시 수성구 노변공원로 49-1 (노변동)|08:30~20:00|공중화장실|N
대구스타디움(주경기장)|35.82976978|128.69016299999998|체육시설관리사무소|053-602-2042|대구광역시 수성구 유니버시아드로 180|09:00~18:00|개방화장실|N
대구스타디움(보조경기장)|35.82976978|128.69016299999998|대구스타디움(보조경기장)|053-602-2042|대구광역시 수성구 유니버시아드로 180|18:00~23:00|개방화장실|N
대구스타디움(제1주차장)|35.82976978|128.69016299999998|대구스타디움(제1주차장)|053-602-2042|대구광역시 수성구 유니버시아드로 180|24시간|개방화장실|N
대구스타디움(제2주차장)|35.82976978|128.69016299999998|대구스타디움(제2주차장)|053-602-2042|대구광역시 수성구 유니버시아드로 180|24시간|개방화장실|N
대구스타디움(종합안내소)|35.82976978|128.69016299999998|대구스탸디움(종합안내소)|053-602-2042|대구광역시 수성구 유니버시아드로 180|24시간|개방화장실|N
대구스타디움(야외공연장|35.82976978|128.69016299999998|대구스타디움(야외공연장|053-602-2042|대구광역시 수성구 유니버시아드로 180|24시간|개방화장실|N
대구스타디움(수변건물)|35.82976978|128.69016299999998|대구스타디움(수변건물)|053-602-2042|대구광역시 수성구 유니버시아드로 180|24시간|개방화장실|N
대구스타디움 간이화장실(1)|35.82976978|128.69016299999998|대구스타디움 간이화장실(1)|053-602-2042|대구광역시 수성구 유니버시아드로 180|24시간|개방화장실|N
대구스타디움 간이화장실(2)|35.82976978|128.69016299999998|대구스타디움 간이화장실(2)|053-602-2042|대구광역시 수성구 유니버시아드로 180|24시간|개방화장실|N
대구스타디움 간이화장실(3)|35.82976978|128.69016299999998|대구스타디움 간이화장실(3)|053-602-2042|대구광역시 수성구 유니버시아드로 180|24시간|개방화장실|N
화남주유소|35.843376|128.69198740000002|화남주유소|053-791-8900|대구광역시 수성구 달구벌대로 3063 (시지동)|06:00~24:00|공중화장실|Y
노변초등학교|35.83774591|128.69762749999998|노변초등학교|053-232-4540|대구광역시 수성구 노변공원로 52 (시지동)|09:00~17:00|공중화장실|N
고산초등학교|35.84395474|128.693198|고산초등학교|053-790-9000|대구광역시 수성구 달구벌대로 3067 (시지동)|09:00~18:00|공중화장실|N
고산중학교|35.845282|128.6986691|고산중학교|053-232-7500|대구광역시 수성구 천을로 71 (시지동)|08:00~18:00|공중화장실|N
대림주유소|35.820130999999996|128.634961|대림주유소|053-781-5151|대구광역시 수성구 용학로 244 (지산동)|06:00~23:00|공중화장실|N
수성지에스주유소|35.82603577|128.62643359999998|수성지에스주유소|053-783-8900|대구광역시 수성구 지범로 52 (지산동)|06:00~23:00|공중화장실|N
신화명품주유소|35.83671506|128.62435729999999|신화명품주유소|053-767-5142|대구광역시 수성구 동대구로 74 (지산동)|06:00~24:00|개방화장실|N
지산중학교|35.824656|128.6285991|지산중학교|053-232-6633|대구광역시 수성구 지산로3길 68 (지산동)|09:00~18:00|공중화장실|N
용지초등학교|35.822008000000004|128.632722|용지초등학교|053-232-3785|대구광역시 수성구 지산로 12 (지산동)|08:30~16:30|공중화장실|N
지산목련시장|35.820333000000005|128.63244699999998|지산목련시장|053-783-4927|대구광역시 수성구 지산동 1299-10|09:00~18:00|공중화장실|N
아주빌딩|35.82107648|128.6390996|아주빌딩|053-783-2511|대구광역시 수성구 지범로 182 (지산동)|09:00~18:00|공중화장실|N
수성고등학교|35.82127606|128.6254677|수성고등학교|053-712-8152|대구광역시 수성구 용학로28길 36 (지산동)|09:00~18:00|공중화장실|N
동아스포츠센터|35.82601392|128.6293531|동아스포츠센터|053-784-6277|대구광역시 수성구 지범로 59 (지산동)|09:00~18:00|개방화장실|N
신세계주유소|35.8173681|128.6134742|신세계주유소|053-763-7894|대구광역시 수성구 파동로 159 (파동)|06:00~23:00|공중화장실|N
효성아동병원|35.843253000000004|128.612851|효성아동병원|053-212-7700|대구광역시 수성구 수성로 200 (중동)|09:00~18:00|공중화장실|N
NH농협은행|35.846839|128.612367|NH농협은행|053-760-3094|대구광역시 수성구 희망로 124 (중동)|08:00~18:00|공중화장실|N
황금캐슬주유소|35.838876|128.62668|황금캐슬주유소|053-765-7100|대구광역시 수성구 청수로 172|24시간|공중화장실|N
한일주유소|35.839095|128.6255685|한일주유소|053-766-2966|대구광역시 수성구 청수로 162 (지산동)|06:00~23:00|공중화장실|N
지산주유소|35.826528|128.6368798|지산주유소|053-784-2722|대구광역시 수성구 지산로14길 63 (지산동)|06:00~23:00|공중화장실|N
지봉초등학교|35.82546519|128.6408054|지봉초등학교|053-781-9273|대구광역시 수성구 지범로31길 45 (지산동)|08:30~16:30|공중화장실|N
복음선교관|35.8319496|128.623989|복음선교관|053-765-8006|대구광역시 수성구 동대구로 20 (지산동)|09:00~18:00|공중화장실|N
문화주유소|35.82629098|128.6442084|문화주유소|053-782-3300|대구광역시 수성구 청호로 93 (지산동)|06:00~23:00|공중화장실|N
능인고등학교|35.83210901|128.6325585|능인고등학교|053-235-4420|대구광역시 수성구 무학로 207 (지산동)|09:00~18:00|공중화장실|N
능인중학교|35.83210901|128.6325585|능인중학교|053-232-9103|대구광역시 수성구 무학로 207 (지산동)|09:00~18:00|공중화장실|N
지산초등학교|35.82695807|128.6301691|지산초등학교|053-232-0900|대구광역시 수성구 지범로17길 3-14 (지산동)|08:30-16:30|공중화장실|N
한패밀리병원|35.831329|128.6239644|한패밀리병원|053-760-8893|대구광역시 수성구 동대구로 12 (지산동)|08:00-20:00|공중화장실|N
대구광역시교통연수원|35.83047264|128.630497|대구광역시교통연수원|053-765-3001|대구광역시 수성구 무학로 203 (지산동)|24시간|개방화장실|N
대구여자고등학교|35.85658816|128.6298635|대구여자고등학교|053-231-7251|대구광역시 수성구 달구벌대로488길 17 (범어동)|08:20~16:20|공중화장실|N
효산병원|35.85219614|128.624677|효산요양병원|053-766-2114|대구광역시 수성구 동대구로 245 (범어동)|24시간|공중화장실|N
여성메디파크병원|35.854695|128.62474|여성메디파크병원|053-740-7700|대구광역시 수성구 동대구로 271 (범어동)|24시간|공중화장실|N
경상제일주유소|35.866995|128.63605900000002|경상제일주유소|053-741-3059|대구광역시 수성구 국채보상로 964 (범어동)|06:00~24:00|공중화장실|Y
범어초등학교|35.860662|128.63277240000002|범어초등학교|053-232-1783|대구광역시 수성구 달구벌대로489길 55 (범어동)|09:00~18:00|공중화장실|N
새범어종합시장|35.86627372|128.63515890000002|새범어종합시장|-|대구광역시 수성구 국채보상로192길 20 (범어동, 시장연립주택)|09:00~18:00|공중화장실|N
율촌빌딩|35.861664000000005|128.6287846|율촌빌딩|053-755-1111|대구광역시 수성구 동대구로 348-15 (범어동)|09:00~18:00|공중화장실|N
동일빌딩|35.859257|128.6365777|동일빌딩|053-756-1201|대구광역시 수성구 달구벌대로 2503 (범어동)|09:00~20:00|개방화장실|N
교직원공제회관|35.860052|128.627182|교직원공제회관|053-753-9484|대구광역시 수성구 동대구로 334 (범어동)|05:00~23:00|공중화장실|N
성광빌딩|35.86193168|128.6278873|성광빌딩|053-752-3333|대구광역시 수성구 동대구로 358-6 (범어동)|09:00~18:00|공중화장실|N
대구상조빌딩|35.85919555|128.6318918|대구상조㈜|053-253-6655|대구광역시 수성구 달구벌대로 2461 (범어동)|09:00~19:00|공중화장실|N
상원빌딩|35.859761999999996|128.627359|㈜상원|053-744-4314|대구광역시 수성구 동대구로 330 (범어동)|06:00~24:00|공중화장실|N
동대구농협|35.8592704|128.634668|동대구농협|053-756-0091|대구광역시 수성구 달구벌대로 2487 (범어동)|09:00~18:00|개방화장실|N
대구문화방송M.B.C|35.86605026|128.62879080000002|대구문화방송M.B.C|053-744-5001|대구광역시 수성구 동대구로 400 (범어동)|09:00~18:00|공중화장실|N
기업은행|35.858492|128.62788500000002|기업은행|053-744-5194|대구광역시 수성구 달구벌대로 2426 (범어동)|09:00~18:00|공중화장실|N
수성주유소|35.85922817|128.63161350000001|수성주유소|053-752-4071|대구광역시 수성구 달구벌대로 2457 (범어동)|06:00~24:00|개방화장실|N
송원교육문화재단송원학원|35.859218|128.63863600000002|송원교육문화재단송원학원|053-753-1000|대구광역시 수성구 달구벌대로 2521 (범어동)|09:00~18:00|공중화장실|N
미니주유소|35.887487|128.647908|박선미|-|대구광역시 동구 해동로 171|09:00~18:00|공중화장실|Y
동촌지하철역|35.88596148|128.6504598|지하철공사|-|대구광역시 동구 해동로 197(검사동)|09:00~18:00|공중화장실|N
홈플러스 동촌점|35.886156|128.65567|주식회사국민은행|-|대구광역시 동구 동촌로 127|09:00~24:00|공중화장실|N
지성365할인주유소|35.884319|128.657984|정세용|-|대구광역시 동구 동촌로 155|06:00~24:00|공중화장실|N
열경요양병원|35.88444425|128.6564226|허진영|-|대구광역시 동구 동촌로 146|09:00~18:00|공중화장실|N
㈜부강에너지 착한주유소|35.88721022|128.6511324|한철규|-|대구광역시 동구 동촌로 86|06:00~24:00|공중화장실|Y
동촌우체국|35.885806|128.651282|우제국장|-|대구광역시 동구 해동로 207|09:00~18:00|공중화장실|Y
동촌동주민센터|35.886593|128.65238200000002|대구광역시 동구청장|-|대구광역시 동구 입석동|09:00~18:00|공중화장실|N
송정오일뱅크|35.8723081|128.736347|김영호|-|대구광역시 동구 안심로 483|09:00~18:00|공중화장실|N
수성유원지(지산하수처리장)|35.82937671|128.6205781|수성유원지(지산하수처리장)|053-666-2835|대구광역시 수성구 두산동 499-4|24시간|개방화장실|N
관계지어린이공원|35.81456|128.63995500000001|관계지어린이공원|053-666-2835|대구광역시 수성구 범물동 1367|24시간|개방화장실|N
중앙어린이공원|35.818095|128.639034|중앙어린이공원|053-666-2835|대구광역시 수성구 범물동 1348|24시간|개방화장실|N
수성유원지(보트장쪽)|35.826518|128.618356|수성유원지(보트장쪽)|053-666-2835|대구광역시 수성구 두산동 554-3|24시간|개방화장실|N
수성유원지(삼풍아파트 동편)|35.824656|128.614666|수성유원지(삼풍아파트 동편)|053-666-2835|대구광역시 수성구 두산동 산21-10|24시간|개방화장실|N
수성유원지(구 충혼탑앞)|35.825918|128.61611000000002|수성유원지(구 충혼탑앞)|053-666-2835|대구광역시 수성구 두산동산21-13|24시간|개방화장실|Y
고산3동주민센터|35.84413609|128.706578|고산3동주민센터|053-666-3973|대구광역시 수성구 고산로 152 (매호동)|09:00~18:00|개방화장실|N
화랑공원|35.872189|128.6390614|화랑공원|053-666-2835|대구광역시 수성구 만촌로 151|24시간|개방화장실|N
지산어린이공원|35.835125|128.627453|지산어린이공원|053-666-2835|대구광역시 수성구 지산동 1013|24시간|개방화장실|N
범물어린이공원|35.817333000000005|128.64451200000002|범물어린이공원|053-666-2835|대구광역시 수성구 범물동 1376|24시간|개방화장실|N
성명치안센터 화장실|35.838736|128.564778|성명치안센터|053-650-2013|대구광역시 남구 대명로14길 7 (대명동,1060-1)|8시간|공중화장실|N
상수도 사업 본부 화장실|35.85445689|128.5961118|대구 상수도 사업 본부|053-670-2000|대구광역시 남구 명덕로 52길 45|8시간|공중화장실|N
대명11동사무소화장실|35.836185|128.560564|대명11동사무소|053-664-3952|대구광역시 남구 관문시장길 4길 53|8시간|공중화장실|N
대덕문화전당|35.8431565|128.5875407|대덕문화전당|053-664-3132|대구광역시 남구 대명로 58길 14|8시간|공중화장실|N
남구보건소|35.8539014|128.5915225|남구보건소|053-664-3606|대구광역시 남구 영선길 34 (대명동)|8시간|공중화장실|N
대구교육정보원|35.85183327|128.5865488|대구교육정보원|053-231-1461|대구광역시 남구 중앙대로31길 150 (대명동)|8시간|공중화장실|N
달성교육청|35.84119472|128.562198|달성교육청|053-623-2101|대구광역시 남구 대명복개로7길 23-1 (대명동)|8시간|공중화장실|N
남부도서관|35.83206989999999|128.58075829999999|남부도서관|053-231-2301|대구광역시 남구 앞산순환로 512|8시간|공중화장실|N
봉덕동우체국|35.84179506|128.6055001|봉덕동우체국|053-471-0015|대구광역시 남구 중앙대로22길 269 (봉덕동,883-2)|8시간|공중화장실|N
봉덕3동우체국|35.838516|128.5948419|봉덕3동우체국|053-473-1414|대구광역시 남구 삼정2길 36 (봉덕동,1356-1)|8시간|공중화장실|N
봉천지구대|35.8460903|128.5988618|봉천지구대|053-475-0112|대구광역시 남구 이천로 54-3|8시간|공중화장실|N
남구청사(별관)|35.84552704|128.5978365|대구 남구청|053-664-2832|대구광역시 남구 이천로 51 (봉덕동,565-5)|8시간|공중화장실|N
남구청  본관 화장실|35.84552704|128.597815|대구 남구청|053-664-2832|대구광역시 남구 이천로 51 (봉덕동,565-5)|8시간|공중화장실|N
상수도 중남부 사업소 화장실|35.854502000000004|128.598609|대구 상수도 중남부 사업소|053-670-3060|대구광역시 남구 이천로 149|8시간|공중화장실|N
신천3동주민센터|35.87541517|128.6237458|대구광역시 동구청장|-|대구광역시 동구 장등로 90 (신천동)|06:00~24:00|공중화장실|Y
동대구대성빌딩|35.8750542|128.6238218|김영훈|-|대구광역시 동구 장등로 86 (신천동)|08:30~18:30|공중화장실|N
바로본병원|35.8684136|128.6151819|의료법인백천의료재단|-|대구광역시 동구 국채보상로 769 (신천동)|08:30~18:30|공중화장실|N
청구고등학교|35.86865579|128.6205717|학교법인 청구학원 이사장 김지현|-|대구광역시 동구 국채보상로 827 (신천동)|09:00~17:00|공중화장실|Y
청구중학교|35.86865579|128.6205717|학교법인 청구학원 이사장 김지현|-|대구광역시 동구 국채보상로 827 (신천동)|09:00~17:00|공중화장실|Y
㈜삼양사|35.8746811|128.6248621|㈜삼양사|-|대구광역시 동구 동대구로 495 (신천동)|09:00~17:00|공중화장실|Y
천일주유소|35.8754396|128.6805517|변희성|-|대구광역시 동구 화랑로 515 (용계동)|09:00~17:00|공중화장실|N
벼룩시장|35.87350785|128.6248207|㈜미디어윌홀딩스|-|대구광역시 동구 동대구로 483 (신천동)|09:00~17:00|공중화장실|Y
대구벤처센타|35.872828999999996|128.62483419999998|(재)대구파크노테크|-|대구광역시 동구 동대구로 475 (신천동)|09:00~17:00|공중화장실|N
조일공업고등학교|35.88208666|128.69445430000002|학교법인 윤당교육재단|-|대구광역시 동구 신덕로 136-11 (신평동)|09:00~17:00|공중화장실|Y
용계치안센터|35.875817600000005|128.6814593|대구동부경찰서장|-|대구광역시 동구 동촌로 390-1 (용계동)|09:00~17:00|공중화장실|N
동진주유소|35.87753115|128.67824040000002|대표이사|-|대구광역시 동구 동촌로 355|09:00~17:00|공중화장실|N
동대구고속주유소|35.87691901|128.6784404|권현성외1인|-|대구광역시 동구 동촌로 358 (용계동)|09:00~17:00|공중화장실|Y
정동고등학교|35.87674915|128.6928658|학교법인 호산교육 재단|-|대구광역시 동구 용계로1길 49|09:00~17:00|공중화장실|N
신천치안센터|35.8699333|128.6148406|대구동부경찰서장|-|대구광역시 동구 국채보상로159길 41 (신천동, 우방푸른타운)|09:00~17:00|공중화장실|Y
동대구역치안센터|35.877336799999995|128.6263248|국(관리청 내무부)|-|대구광역시 동구 동대구로 527 (신천동)|09:00~17:00|공중화장실|Y
동부소방서|35.87598585|128.62522520000002|대구광역시|-|대구광역시 동구 동대구로 507 (신천동)|09:00~17:00|공중화장실|Y
신천지하철역|35.87470538|128.61701019999998|지하철공사|-|대구광역시 동구 동부로 41 (신천동)|09:00~17:00|공중화장실|Y
신천동우체국|35.8686857|128.619076|우제국장|-|대구광역시 동구 송라로 11 (신천동)|06:00~24:00|공중화장실|N
공산우체국|35.882895|128.66309809999998|우체국장|-|대구광역시 동구 팔공로 1017 공산우체국|09:00~18:00|공중화장실|N
공산중학교|35.95506586|128.6906832|대구광역시 교육감|-|대구광역시 동구 팔공로197길 26|09:00~18:00|공중화장실|Y
대구공산초등학교|35.95647964|128.6906247|대구광역시 교육감|-|대구광역시 동구 팔공로197길 35|09:00~18:00|공중화장실|N
국제주유소|35.93241037|128.64354369999998|오은주, 이영근|-|대구광역시 동구 팔공로 376 (봉무동)|06:00~24:00|공중화장실|Y
대구영신초등학교|35.91925526|128.6473981|영신재단|-|대구광역시 동구 팔공로50길 32 (봉무동)|06:00~24:00|공중화장실|N
영신고등학교|35.91925526|128.6473981|대구광역시 교육감|-|대구광역시 동구 팔공로50길 32 (봉무동)|09:00~17:00|공중화장실|N
영신중학교|35.91925526|128.6473981|영신재단|-|대구광역시 동구 팔공로50길 32 (봉무동)|09:00~17:00|공중화장실|N
범어3동주민센터|35.86609842|128.6180238|범어3동주민센터|053-666-3573|대구광역시 수성구 들안로 403(범어동)|09:00~18:00|개방화장실|N
케이블카 정상화장실|35.82408217|128.5793837|대구앞산공원관리사무소|053-803-5452|대구광역시 남구 대명동 산227-1|24시간|공중화장실|N
구 제4약수터 화장실|35.827025|128.589561|대구앞산공원관리사무소|053-803-5452|대구광역시 남구 봉덕동 149번지 1호|24시간|공중화장실|N
고산골 공연장지구내|35.827025|128.589561|대구앞산공원관리사무소|053-803-5452|대구광역시 남구 봉덕동 산164-1|24시간|공중화장실|N
대명초등a|35.83886877|128.5688886|대명초등|053-234-0203|대구광역시 남구 대명로 100 (대명동,960폐쇄)|8시간|공중화장실|N
대명초등b|35.83886877|128.5688886|대명초등|053-234-0203|대구광역시 남구 대명로 100 (대명동,960)|8시간|공중화장실|N
봉덕초등학교|35.8396828|128.59684280000002|봉덕초등학교|053-234-0571|대구광역시 남구 효성로 71 (봉덕동,1319-1)|8시간|공중화장실|N
봉덕초 강당|35.8396828|128.59684280000002|봉덕초등학교|053-234-0571|대구광역시 남구 효성로 71 (봉덕동,1319-1)|8시간|공중화장실|N
영선 초등학교|35.85290101|128.59606599999998|영선 초등학교|053-234-0470|대구광역시 남구 영선길 96 (이천동)|8시간|공중화장실|N
효명초등학교 본관|35.83465202|128.6010844|효명초등학교|053-234-1701|대구광역시 남구 앞산순환로 707 (봉덕동)|8시간|공중화장실|N
효명초등학교 강당|35.83465202|128.6010844|효명초등학교|053-234-1701|대구광역시 남구 앞산순환로 707 (봉덕동)|8시간|공중화장실|N
대봉초등학교 생활관|35.85166281|128.6048091|대봉초등학교|053-234-0301|대구광역시 남구 대봉로26길 33 (이천동,253-2 폐쇄)|8시간|공중화장실|N
대봉초등학교 후관|35.85166281|128.6048091|대봉초등학교|053-234-0301|대구광역시 남구 대봉로26길 33 (이천동,253-2폐쇄)|8시간|공중화장실|N
대봉초등학교 본관|35.85166281|128.6048091|대봉초등학교|053-234-0301|대구광역시 남구 대봉로26길 33 (이천동,253-2)|8시간|공중화장실|N
대구중학교 A동|35.85007747|128.6036791|대구중학교|053-234-6002|대구광역시 남구 대봉로 120 (이천동)|8시간|공중화장실|N
대구중학교 B동|35.85007747|128.6036791|대구중학교|053-234-6002|대구광역시 남구 대봉로 120 (이천동)|8시간|공중화장실|N
대구교대본부|35.85143184|128.5877407|대구교대|053-620-1114|대구광역시 남구 중앙대로 219 (대명동,대구교육대학교 1797-6)|8시간|공중화장실|N
가무장 지구내 화장실|35.841478|128.597182|대구앞산공원관리사무소|053-803-5452|대구광역시 남구 봉덕동 149번지 1호|24시간|공중화장실|N
모험시설 지구내 화장실|35.827025|128.589561|대구앞산공원관리사무소|053-803-5452|대구광역시 남구 봉덕동 153번지|24시간|공중화장실|N
㈜엑스코|35.907216|128.612947|㈜엑스코|-|대구광역시 북구 유통단지로 90 (산격동)|업무중|공중화장실|N
대구오페라하우스|35.883463899999995|128.5922301|대구광역시|-|대구광역시 북구 호암로 15 (칠성동2가)|업무중|공중화장실|N
칠성고등학교|35.88060752|128.5912639|대구광역시 교육청|-|대구광역시 북구 칠성로 13(칠성동2가)|-|공중화장실|N
㈜스펙트럼시티|35.88522649|128.58978829999998|㈜스펙트럼시티|-|대구광역시 북구 침산로 93 (칠성동2가)|-|공중화장실|N
신세계이마트 칠성점|35.88522649|128.58978829999998|이마트|-|대구광역시 북구 침산로 93 (칠성동2가)|-|공중화장실|N
지하철 칠성역|35.878403000000006|128.59286799999998|대구도시철도공사|-|-|연중무휴|공중화장실|N
현운빌딩|35.87840228|128.595011|개인|-|대구광역시 북구 중앙대로 507 (칠성동2가)|-|공중화장실|N
리치프라자|35.8857914|128.58609779999998|개인|-|대구광역시 북구 옥산로17길 14 (칠성동2가)|-|공중화장실|N
삼성시장|35.87781729|128.6034808|상인회|-|대구광역시 북구 칠성시장로 42 (칠성동1가)|연중무휴|공중화장실|N
원시장|35.87542332|128.603251|상인회|-|대구광역시 북구 칠성시장로5길 22 (칠성동1가)|연중무휴|공중화장실|N
경명시장|35.8757382|128.6040838|상인회|-|대구광역시 북구 칠성시장로 19 (칠성동1가)|연중무휴|공중화장실|N
수성시장역|35.85427003|128.61601940000003|대구도시철도공사|053-640-7581|대구광역시 수성구 명덕로 420(수성동2가)|05:30~24:00|개방화장실|N
수성구민운동장역|35.85244278|128.6253511|대구도시철도공사|053-640-7581|대구광역시 수성구 동대구로 248(범어동)|05:30~24:00|개방화장실|N
어린이회관역|35.84508204|128.6248334|대구도시철도공사|053-640-7611|대구광역시 수성구 동대구로 166(황금동)|05:30~24:00|개방화장실|N
황금역|35.83918861|128.62429709999998|대구도시철도공사|053-640-7611|대구광역시 수성구 동대구로 100(두산동)|05:30~24:00|개방화장실|N
수성못역|35.83141926|128.6236075|대구도시철도공사|053-640-7611|대구광역시 수성구 동대구로 14(지산동)|05:30~24:00|개방화장실|N
지산역|35.82512619|128.6315524|대구도시철도공사|053-640-7611|대구광역시 수성구 지범로 100(지산동)|05:30~24:00|개방화장실|N
에덴공원|35.821715000000005|128.632647|에덴공원|053-666-2835|대구광역시 수성구 지산동 1272-1|24시간|개방화장실|N
화성공원|35.825532|128.629445|화성공원|053-666-2835|대구광역시 수성구 지산동 1256|24시간|개방화장실|Y
시민공원|35.863372|128.63087|시민공원|053-666-2835|대구광역시 수성구 범어동 산228-1|24시간|개방화장실|N
용두골공중화장실|35.809353|128.607743|앞산공원관리사무소|053-803-5465|대구광역시 수성구 파동 산109-1|24시간|개방화장실|N
지산지구대|35.823194|128.63718400000002|지산지구대|053-600-6315|대구광역시 수성구 지범로 155 (지산동)|09:00~18:00|개방화장실|N
용학도서관|35.821253000000006|128.646128|용학도서관|053-782-9600|대구광역시 수성구 지범로41길 36 (범물동)|09:00~18:00|개방화장실|N
홈플러스대구스타디움 고객화장실|35.83165878|128.687326|홈플러스대구스타디움 고객화장실|053-664-8124|대구광역시 수성구 유니버시아드로 140|10:00~24:00|공중화장실|N
영광메디칼빌딩|35.85948674|128.6135601|영광메디칼빌딩|053-741-0009|대구광역시 수성구 달구벌대로 2296 (수성동1가)|09:00~18:00|개방화장실|N
두산문화센터|35.839242|128.6181617|두산문화센터|053-666-2542|대구광역시 수성구 들안로16길 78 (두산동)|09:00~18:00|개방화장실|N
홈플러스수성점|35.83791279|128.6226818|홈플러스수성점|053-760-8000|대구광역시 수성구 동대구로 95 (두산동, 수성에스케이리더스뷰아파트)|09:00~24:00|공중화장실|N
대구미술관(전시동)|35.82702838|128.674339|대구미술관(전시동)|053-790-3000|대구광역시 수성구 미술관로 40 (삼덕동)|09:00~18:00|개방화장실|N
수성구청소년수련원|35.79910608|128.672302|수성구청소년수련원|053-784-1318|대구광역시 수성구 진밭길 409|09:00~18:00|개방화장실|N
수성패밀리파크|35.87035122|128.67301799999998|수성패밀리파크|053-666-2835|대구광역시 수성구 고모동 20-1|24시간|개방화장실|N
무열로119안전센터|35.87073513|128.648153|무열로119안전센터|053-741-0119|대구광역시 수성구 무열로 139 (만촌동)|09:00~18:00|개방화장실|N
범어도서관|35.859348|128.6306649|범어도서관|053-668-1600|대구광역시 수성구 달구벌대로 2451|09:00~18:00|개방화장실|N
만촌지구대|35.86828155|128.6488699|만촌지구대|053-600-6305|대구광역시 수성구 무열로 111|24시간|개방화장실|N
만촌1동치안센터|35.8750443|128.6464511|만촌지구대|053-600-6304|대구광역시 수성구 무열로 196|09:00~18:00|개방화장실|N
신천4동주민센터|35.871728600000004|128.629306|대구광역시 동구청장|-|대구광역시 동구 동부로30길 61-7|09:00~17:00|공중화장실|N
효신시장|35.8744512|128.63261440000002|시장상인회|-|대구광역시 동구 효신로5길 40|09:00~17:00|공중화장실|N
신대한LPG제1충전소|35.87604816|128.6219491|박용규,박용환,김미숙|-|대구광역시 동구 동부로 89|09:00~17:00|공중화장실|N
동부주유소|35.872746899999996|128.6346617|최억만|-|대구광역시 동구 효신로 7|09:00~17:00|공중화장실|N
동신초등학교|35.869074|128.62899099999998|대구광역시 교육감|-|대구광역시 동구 송라로 123 대구동신초등학교|06:00~24:00|공중화장실|Y
대구효신초등학교|35.8726276|128.6321105|대구광역시 교육감|-|대구광역시 동구 동부로34길 70 (신천동)|06:00~24:00|공중화장실|N
동보한방의원|35.874035|128.6175126|장세환|-|대구광역시 동구 송라로 79-1 (신천동)|00:00~24:00|공중화장실|N
송라시장|35.87448676|128.6153095|시장상인회|-|대구광역시 동구 동부로5길 10|06:00~24:00|공중화장실|N
스마트 벤처창업 학교|35.8723182|128.624827|학교장|-|대구광역시 동구 동대구로 467|09:00~17:00|공중화장실|N
대구상공회의소|35.871089700000006|128.62495900000002|대구상공회의소|-|대구광역시 동구 동대구로 457|09:00~17:00|공중화장실|N
대구경북디자인센타|35.8714021|128.62487|대구광역시|-|대구광역시 동구 동대구로 461|09:00~17:00|공중화장실|N
㈜영남일보|35.869673799999994|128.6249367|영남일보사 외|-|대구광역시 동구 동대구로 441|09:00~17:00|공중화장실|N
대성산업㈜하이웨이주유소|35.8676734|128.6236282|대표이사|-|대구광역시 동구 국채보상로 849|09:00~17:00|공중화장실|N
신천3치안센터|35.8723182|128.624827|대구동부경찰서장|-|대구광역시 동구 송라로2길|09:00~17:00|공중화장실|Y
대구신천초등학교|35.87165608|128.6210093|대구광역시 교육감|-|대구광역시 동구 송라로6길 5|09:00~17:00|공중화장실|Y
동대구역전시장|35.87430058|128.6205261|시장상인회|-|대구광역시 동구 동부로16길 18|09:00~17:00|공중화장실|N
극동주유소|35.875112200000004|128.6213294|조양래|-|대구광역시 동구 동부로 80|09:00~17:00|공중화장실|N
동대구로체육공원 1|35.87581825|128.626422|대구광역시 동구청장|-|대구광역시 동구 동대구로22길 10|09:00~17:00|공중화장실|N
동대구로체육공원 2|35.8742273|128.6261575|대구광역시 동구청장|-|대구광역시 동구 동대구로 492|09:00~17:00|공중화장실|N
LG텔레콤 대구교환국|35.8697765|128.62653|㈜엘지텔레콤|-|대구광역시 동구 동대구로 440|09:00~17:00|공중화장실|N
㈜아모레퍼시픽|35.8673211|128.6272603|㈜아모레퍼시픽|-|대구광역시 동구 동대구로 412|09:00~17:00|공중화장실|Y
MH컨벤션웨딩|35.867868|128.6272081|㈜문화웨딩|-|대구광역시 동구 동대구로 418|09:00~17:00|공중화장실|N
동대구세무서|35.8673843|128.629075|국세청|-|대구광역시 동구 국채보상로 895|09:00~17:00|공중화장실|Y
KT&G 동대구지점|35.86800482|128.628734|KT&G|-|대구광역시 동구 동부로30길 100-3|09:00~17:00|공중화장실|Y
신천1,2동주민센터|35.8699333|128.6148406|대구광역시 동구청장|-|대구광역시 동구 국채보상로159길 41 (신천동, 우방푸른타운)|06:00~24:00|공중화장실|N
문화주유소|35.869074100000006|128.62899050000001|박세연|-|대구광역시 동구 동부로30길 90|09:00~17:00|공중화장실|N
동대구역지하철역|35.86978645|128.6265246|지하철공사|-|대구광역시 동구 동대구로 530(신천동)|09:00~17:00|공중화장실|N
신천4동우체국|35.876138700000006|128.628287|우제국장|-|대구광역시 동구 동부로30길 12-1|09:00~17:00|공중화장실|N
동부여성문화회관|35.89041434|128.6223307|대구광역시|-|대구광역시 동구 신암북로11길 54-2|09:00~17:00|공중화장실|N
신암근린공원|35.88300524|128.6192562|대구광역시 동구청장|-|대구광역시 동구 아양로9길 10|09:00~17:00|공중화장실|N
동부초등학교|35.88802582|128.6198324|대구광역시 교육감|-|대구광역시 동구 신암북로7길 22|09:00~17:00|공중화장실|Y
신암주유소|35.88554636|128.6155319|노은순|-|대구광역시 동구 경대로 54|09:00~17:00|공중화장실|N
대구기상대|35.8855468|128.6189625|부산지방기상청|-|대구광역시 동구 아양로9길 36|09:00~17:00|공중화장실|Y
신암1치안센터|35.885746399999995|128.61651809999998|동부경찰서장|-|대구광역시 동구 아양로7길 43|09:00~17:00|공중화장실|Y
신암5동주민센터|35.889755900000004|128.6330629|대구광역시 동구청장|-|대구광역시 동구 아양로37길 92|09:00~17:00|공중화장실|N
신암1동주민센터|35.884286200000005|128.6163506|대구광역시 동구청장|-|대구광역시 동구 아양로7길 27|09:00~17:00|공중화장실|Y
신암중학교|35.890569799999994|128.63405840000001|대구광역시 교육감|-|대구광역시 동구 아양로41길 56|09:00~17:00|공중화장실|N
한국건강관리협회 대구시지부|35.868786|128.6235479|사단법인한국건강관리협회|-|대구광역시 동구 장등로 16|09:00~17:00|공중화장실|N
관광고등학교|35.8900476|128.6323697|학교법인 동구교육재단|-|대구광역시 동구 동북로71길 37|09:00~17:00|공중화장실|Y
제일안과병원|35.881828000000006|128.6147578|이규원|-|대구광역시 동구 아양로 1|09:00~17:00|공중화장실|N
대구공업고등학교|35.88321428|128.61417120000002|대구광역시 교육감|-|대구광역시 동구 대현로 135|09:00~17:00|공중화장실|Y
한국장학재단|35.8811634|128.6129585|재단이사|-|대구광역시 동구 신암로 125|09:00~17:00|공중화장실|N
아양중학교|35.88824692|128.63491159999998|대구광역시 교육감|-|대구광역시 동구 아양로39길 30|09:00~17:00|공중화장실|N
신암로주유소|35.88107825|128.6121835|박성호|-|대구광역시 동구 신암로 117|09:00~17:00|공중화장실|N
신암선열공원|35.890622|128.63113|대구광역시장|-|대구광역시 동구 동북로71길 33|09:00~17:00|공중화장실|N
오성중학교|35.85370025|128.6447211|오성중학교|053-232-8710|대구광역시 수성구 달구벌대로522길 78 (만촌동)|09:00~18:00|공중화장실|N
영남공업고등학교|35.848428999999996|128.6469277|영남공업고등학교|053-235-8605|대구광역시 수성구 교학로 96 (만촌동)|09:00~18:00|공중화장실|N
소선여자중학교|35.85294938|128.6497973|소선여자중학교|053-232-9501|대구광역시 수성구 교학로8길 37 (만촌동)|24시간|공중화장실|N
SK제일주유소|35.82064746|128.6409541|SK제일주유소|053-781-5611|대구광역시 수성구 지범로 199 (범물동)|06:00~23:00|공중화장실|N
대구범일중학교|35.821135|128.644777|대구범일중학교|053-232-7860|대구광역시 수성구 지범로41길 23 (범물동)|08:20~16:20|공중화장실|N
범물초등학교|35.82148442|128.6448572|범물초등학교|053-232-4049|대구광역시 수성구 지범로41길 33 (범물동)|09:00~18:00|공중화장실|N
복명초등학교|35.817658|128.64722700000002|복명초등학교|053-232-4796|대구광역시 수성구 범안로20길 8 (범물동)|08:30~16:30|공중화장실|N
동아백화점수성점|35.82107368|128.64036090000002|동아백화점수성점|053-780-2212|대구광역시 수성구 지범로 191 (범물동)|09:30~22:00|공중화장실|N
범물종합복지관|35.81869686|128.6470524|범물종합복지관|053-781-2000|대구광역시 수성구 범안로 81 (범물동, 범물용지아파트)|09:00~18:00|개방화장실|N
범물중학교|35.81501768|128.6398557|범물중학교|053-782-8434|대구광역시 수성구 범안로4길 46 (범물동)|09:00~18:00|공중화장실|N
대구범일초등학교|35.81631492|128.6388291|대구범일초등학교|053-232-4173|대구광역시 수성구 범안로4길 22 (범물동)|09:00~18:00|공중화장실|N
수성대학교|35.85437065|128.6468293|수성대학교|053-749-7411|대구광역시 수성구 달구벌대로528길 15 (만촌동)|08:00~24:00|공중화장실|N
청구리빙월드|35.820823|128.639549|청구리빙월드|053-782-3239|대구광역시 수성구 지범로 188 (범물동)|06:00~19:00|공중화장실|N
에스제이주유소|35.855647999999995|128.6514347|에스제이주유소|053-751-5151|대구광역시 수성구 달구벌대로 2650 (만촌동)|06:00~23:00|공중화장실|N
대구혜화여자고등학교|35.8498571|128.6476657|대구혜화여자고등학교|053-749-1213|대구광역시 수성구 교학로12길 62 (만촌동)|07:00~23:00|공중화장실|N
대청초등학교|35.85090774|128.6501668|대청초등학교|053-232-3506|대구광역시 수성구 교학로12길 42 (만촌동)|09:00~18:00|공중화장실|N
만촌종합시장|35.854856|128.651547|만촌종합시장|053-751-9818|대구광역시 수성구 교학로2길 23 (만촌동)|09:00~18:00|공중화장실|N
정화여자고등학교|35.85090566|128.6405813|정화여자고등학교|053-740-1700|대구광역시 수성구 청호로84길 123 (범어동)|09:00~18:00|공중화장실|N
대공원시장|35.857689|128.63518200000001|대공원시장|053-755-7441|대구광역시 수성구 범어로19길 11 (범어동)|09:00~18:00|공중화장실|N
부광빌딩|35.858424|128.636152|부광빌딩|053-767-0320|대구광역시 수성구 달구벌대로 2500 (범어동)|09:00~24:00|공중화장실|N
대아빌딩|35.858444|128.639852|대아빌딩|053-765-5200|대구광역시 수성구 달구벌대로 2532 (범어동)|09:00~18:00|공중화장실|N
골드타워|35.858463|128.6344841|골드타워|053-741-8400|대구광역시 수성구 달구벌대로 2486 (범어동)|09:00~18:00|공중화장실|N
KB손해보험|35.8596707|128.62484609999998|KB손해보험|053-669-7200|대구광역시 수성구 달구벌대로 2397 (범어동)|09:00~18:00|공중화장실|N
상동게이트볼장|35.831043|128.607401|상동게이트볼장|053-666-2183|대구광역시 수성구 상동 667-42|09:00~18:00|개방화장실|N
동천초등학교|35.86584544|128.6252838|동천초등학교|053-232-1493|대구광역시 수성구 상록로16길 20 (범어동)|08:30~16:30|공중화장실|N
청운신용협동조합|35.86705306|128.618645|청운신용협동조합|053-743-9532|대구광역시 수성구 들안로 416 (범어동)|08:00~19:00|공중화장실|N
로터리시장|35.8627502|128.625075|로터리시장|-|대구광역시 수성구 상록로2길 77 (범어동)|09:00~18:00|공중화장실|N
삼성화재㈜범어사옥|35.866192|128.626263|삼성화재㈜범어사옥|053-607-7581|대구광역시 수성구 동대구로 401 (범어동)|09:00~18:00|공중화장실|N
범어빌딩|35.86229872|128.6260704|범어빌딩|053-742-4680|대구광역시 수성구 동대구로 355 (범어동)|09:00~18:00|공중화장실|N
KT범어사옥|35.863925|128.626257|KT범어사옥|053-752-2917|대구광역시 수성구 동대구로 375 (범어동)|09:00~18:00|공중화장실|N
건설회관|35.866791|128.6249622|건설회관|053-755-5086|대구광역시 수성구 국채보상로 860 (범어동)|09:00~18:00|공중화장실|N
정암빌딩|35.860954|128.6259999|㈜문앤선대구지사|053-753-0474|대구광역시 수성구 동대구로 341 (범어동)|06:00~22:00|공중화장실|N
법무빌딩|35.861856|128.626168|법무빌딩|053-214-0114|대구광역시 수성구 동대구로 351 (범어동)|07:30~20:00|공중화장실|N
참저축은행|35.865627|128.626249|참저축은행|053-720-7354|대구광역시 수성구 동대구로 395 (범어동)|08:00~23:00|공중화장실|N
새마을금고중앙회 대구지역본부|35.86677252|128.62526200000002|새마을금고중앙회 대구지역본부|053-210-3014|대구광역시 수성구 국채보상로 866 (범어동)|08:00~18:00|공중화장실|N
가든주유소|35.85454165|128.639043|가든주유소|053-741-5152|대구광역시 수성구 청호로 417 (범어동)|06:00~23:00|공중화장실|N
신매공원|35.83290845|128.7090818|신매공원|053-666-2835|대구광역시 수성구 달구벌대로650길 59-6|24시간|개방화장실|N
매호공원|35.844658|128.70398799999998|매호공원|053-666-2835|대구광역시 수성구 천을로23길 5|24시간|개방화장실|N
도시철도3호선 구암역|35.92566312|128.55032659999998|도시철도송사|-|대구광역시 북구 팔거천동로 1 (구암동)|연중무휴|공중화장실|N
동림빌딩|35.943710700000004|128.5646168|개인|-|대구광역시 북구 동암로 128 (구암동)|-|공중화장실|N
강북경찰서|35.94345181|128.5653064|경찰청|-|대구광역시 북구 동암로 130 (구암동)|연중무휴|공중화장실|N
북대구우체국|35.94153605|128.5657163|북대구우체국|-|대구광역시 북구 구암로65길 38 (구암동)|업무중|공중화장실|N
함지근린공원|35.942288|128.568728|대구광역시 북구청|-|-|연중무휴|공중화장실|N
강북초등학교|35.9408343|128.56678200000002|대구광역시 교육청|-|대구광역시 북구 구암서로 50 (구암동)|-|공중화장실|N
운암고등학교|35.93884743|128.563704|대구광역시 교육청|-|대구광역시 북구 학정로 378(구암동)|-|공중화장실|N
강북중학교|35.93870274|128.5648981|대구광역시 교육청|-|대구광역시 북구 구암서로 27 (구암동)|-|공중화장실|N
동평중학교|35.9371652|128.56351180000001|대구광역시 교육청|-|대구광역시 북구 대천로 123 (구암동)|-|공중화장실|N
구암동주민센터|35.9389234|128.5660435|대구광역시 북구청|-|대구광역시 북구 구암서로 32 (구암동)|업무중|공중화장실|N
대명치안센터|35.84422279|128.56990159999998|대명치안센터|053-625-0112|대구광역시 남구 두류공원로18길 1 (대명동,3044-49)|24시간|공중화장실|N
대덕쉼터|35.829015000000005|128.589131|대구앞산공원관리사무소|053-803-5452|대구광역시 남구 대명동 227번지 1호|24시간|공중화장실|N
앞산공원 사무소|35.829015000000005|128.589131|대구앞산공원관리사무소|053-803-5452|대구광역시 남구 대명동 227번지 1호|24시간|공중화장실|N
대성사 앞 화장실|35.844698|128.590344|대구앞산공원관리사무소|053-803-5452|대구광역시 남구 대명동 227번지|24시간|공중화장실|N
은적사 앞 화장실|35.829015000000005|128.589131|대구앞산공원관리사무소|053-803-5452|대구광역시 남구 대명동 227번지 1호|24시간|공중화장실|N
유기장 뒤 화장실|35.829015000000005|128.589131|대구앞산공원관리사무소|053-803-5452|대구광역시 남구 대명동 227번지 1호|24시간|공중화장실|N
고산골 사무실 옆 화장실|35.836591999999996|128.582928|대구앞산공원관리사무소|053-803-5452|대구광역시 남구 대명동 39번지 4호|24시간|공중화장실|N
고산골 사무실내|35.836591999999996|128.582928|대구앞산공원관리사무소|053-803-5452|대구광역시 남구 대명동 39번지 4호|24시간|공중화장실|Y
명동공원 화장실|35.85315814|128.5776402|대구 남구청|053-664-2858|대구광역시 남구 성당로48길 68 (대명동,2254)|8시간|공중화장실|N
대명제2공원|35.84544745|128.5834288|대구 남구청|053-664-2858|대구광역시 남구 명덕시장길 29|8시간|공중화장실|N
큰골 주차장 화장실|35.84307572|128.58861000000002|대구앞산공원관리사무소|053-803-5452|대구광역시 남구 대명남2길 70-4 (대명동,산 156-6)|24시간|공중화장실|N
충혼탑 화장실|35.832381|128.583421|대구앞산공원관리사무소|053-803-5452|대구광역시 남구 대명동 186번지|24시간|공중화장실|N
덕천치안센터|35.833215|128.600606|덕천치안센터|053-476-0112|대구광역시 남구 봉덕동 1275번지 5호|24시간|공중화장실|N
낙동강승전기념관|35.82716989|128.5887886|낙동강승전기념관|053-621-9880|대구광역시 남구 앞산순환로 574-110|24시간|공중화장실|N
남구 종합 사회 복지관|35.849241|128.5919719|남구 종합 사회 복지관|053-476-7700|대구광역시 남구 중앙대로38길 17 (대명동)|8시간|공중화장실|N
안지랑골 사무실앞 화장실|35.842279|128.584543|대구앞산공원관리사무소|053-803-5452|대구광역시 남구 대명로 254-1 (대명동,산221-6)|24시간|공중화장실|N
안일사 앞 화장실|35.84395033|128.5876181|대구앞산공원관리사무소|053-803-5452|대구광역시 남구 대명로 지하 292 (대명동,산 224)|24시간|공중화장실|N
상동방천주유소|35.83257155|128.60707150000002|상동방천주유소|053-768-5100|대구광역시 수성구 신천동로 85 (상동)|06:00~24:00|공중화장실|N
강남병원|35.883069|128.66303159999998|최용석|-|대구광역시 동구 동촌로 207|09:00~18:00|공중화장실|N
케이에이㈜직영|35.8828949|128.66309809999998|경북광유주식회사|-|대구광역시 동구 동촌로 205|09:00~18:00|공중화장실|Y
2.28기념 중앙공원|35.8692142|128.59718279999998|대구시설공단 도심공원|-|대구광역시 중구 동성로2길 80|24시간|개방화장실|N
반월당역(2호선)|35.86442069|128.5933403|대구도시철도공사 2반월당역|-|대구광역시 중구 달구벌대로 지하2100|05:20~24:00|개방화장실|N
갑을빌딩|35.870410299999996|128.5869856|개인|-|대구광역시 중구 국채보상로 515|09:00~18:30|개방화장실|N
경구중학교|35.85769247|128.5834111|경구중학교 행정실|-|대구광역시 중구 남산로 20|0|공중화장실|N
경대병원역(2호선)|35.86319903|128.602801|대구도시철도공사 경대병원역|-|대구광역시 중구 달구벌대로 지하2190|05:20~24:00|개방화장실|N
경북공업고등학교|35.85769247|128.5834111|경북공업고등학교 행정실|-|대구광역시 중구 남산로 20|0|공중화장실|N
케이케이(주) 유성주유소|35.85560652|128.6041376|개인|-|대구광역시 중구 동덕로 6|07:00~22:00|개방화장실|N
케이케이(주) 중앙주유소|35.86954045|128.6006658|개인|-|대구광역시 중구 국채보상로 642|07:00~23:00|개방화장실|N
운암중학교|35.93284009|128.565301|대구광역시 교육청|-|대구광역시 북구 구암로49길 9 (구암동)|-|공중화장실|N
대구 광명학교 기숙사|35.85594572|128.57507420000002|대구대학교|053-850-5000|대구광역시 남구 성당로50길 33 (대명동)|8시간|공중화장실|N
천주성삼병원|35.840265|128.705751|천주성삼병원|053-790-1000|대구광역시 수성구 달구벌대로 3190 (신매동)|24시간|공중화장실|N
대구은행시지점|35.840174|128.706195|대구은행시지점|053-804-4568|대구광역시 수성구 달구벌대로 3196 (신매동)|09:00~16:00|공중화장실|N
이마트시지점|35.8397742|128.70404|이마트시지점|053-718-1100|대구광역시 수성구 고산로 101 (신매동)|10:00~24:00|공중화장실|N
아레나스포츠센터|35.840365999999996|128.705246|아레나스포츠센터|053-792-6000|대구광역시 수성구 달구벌대로 3188 (신매동)|09:00~18:00|공중화장실|N
덕원중학교|35.82497363|128.70638|덕원중학교|053-232-8553|대구광역시 수성구 욱수길 37 (욱수동)|08:20~16:00|공중화장실|N
덕원고등학교|35.82497363|128.70638|덕원고등학교|053-235-5442|대구광역시 수성구 욱수길 37 (욱수동)|09:00~18:00|공중화장실|N
반야월지하철역|35.86620949|128.71320649999998|지하철공사|-|대구광역시 동구 안심로 261(동호동)|06:00~24:00|공중화장실|N
반야월주유소|35.8723123|128.71051070000001|김주원|-|대구광역시 동구 반야월로 201|09:00~18:00|공중화장실|N
대구동호초등학교|35.872312|128.710511|대구광역시 교육감|-|대구광역시 동구 동호로 25 대구동호초등학교|06:00~24:00|공중화장실|Y
SK동호주유소|35.86714446|128.72243319999998|김완수|-|대구광역시 동구 안심로 346|09:00~18:00|공중화장실|Y
동호동우체국|35.86714446|128.72243319999998|우체국장|-|대구광역시 동구 동호로 63 동호동우체국|06:00~24:00|공중화장실|N
행운주유소|35.865970000000004|128.724028|심상한|-|대구광역시 동구 동초로 183-4|09:00~18:00|공중화장실|N
대구동촌초등학교|35.882078|128.658931|대구광역시 교육감|-|대구광역시 동구 동촌로 168|06:00~24:00|공중화장실|Y
대구시농업기술센터|35.88008451|128.6602502|대구광역시|-|대구광역시 동구 동촌로42길 69|09:00~18:00|공중화장실|N
동촌중학교|35.882418|128.6596605|대구광역시 교육감|-|대구광역시 동구 동촌로 176|09:00~18:00|공중화장실|Y
방촌시장|35.881329|128.664466|시장상인회|-|대구광역시 동구 동촌로46길 2|09:00~18:00|공중화장실|N
대구방촌초등학교|35.88065514|128.6630347|대구광역시 교육감|-|대구광역시 동구 동촌로42길 35-14|09:00~18:00|공중화장실|N
천광주유소|35.876866799999995|128.662867|남상필|-|대구광역시 동구 화랑로 356|09:00~18:00|공중화장실|N
방촌동주민센터|35.876867|128.662867|대구광역시 동구청장|-|대구광역시 동구 동촌로48길 26 방촌동주민센터|06:00~24:00|공중화장실|N
국가대표 제2주유소|35.8776654|128.664889|김태헌|-|대구광역시 동구 화랑로 377|09:00~18:00|공중화장실|N
대구용호초등학교|35.87735702|128.6723772|대구광역시 교육감|-|대구광역시 동구 동촌로56길 82|06:00~24:00|공중화장실|Y
스타하우스|35.87813938|128.6739461|㈜스타하우스|-|대구광역시 동구 동촌로 316|09:00~18:00|공중화장실|N
방촌주유소|35.8780635|128.67444709999998|이동현|-|대구광역시 동구 동촌로 320|09:00~18:00|공중화장실|N
해안지하철역|35.88382759|128.6590925|지하철공사|-|대구광역시 동구 동촌로 167(방촌동)|06:00~24:00|공중화장실|N
해안동주민센터|35.8820761|128.6716797|대구광역시 동구청장|-|대구광역시 동구 방촌로29길 46|09:00~18:00|공중화장실|N
방촌지하철역|35.87996746|128.66999170000003|지하철공사|-|대구광역시 동구 동촌로 275(방촌동)|09:00~18:00|공중화장실|Y
방촌치안센터|35.879403|128.67168529999998|대구동부경찰서장|-|대구광역시 동구 동촌로 293|09:00~18:00|공중화장실|N
세경방촌주유소|35.87958564|128.67178629999998|기보연|-|대구광역시 동구 동촌로 291-4|09:00~18:00|공중화장실|Y
현대상가시장|35.88278731|128.6657517|시장상인회|-|대구광역시 동구 방촌로 125|06:00~24:00|공중화장실|N
대구방짜유기박물관|35.96545433|128.70136409999998|대구광역시|-|대구광역시 동구 도장길 29|09:00~18:00|공중화장실|Y
안심우체국|35.96545433|128.70136409999998|우체국장|-|대구광역시 동구 경안로 780 대구안심우체국|09:00~18:00|공중화장실|N
대구도시가스(주)동호CNG충전소|35.86471972|128.71429479999998|대구도시가스|-|대구광역시 동구 경안로 700|09:00~18:00|공중화장실|N
남대구 세무서 화장실|35.83838008|128.5718051|남대구 세무서|053-659-0200|대구광역시 남구 안지랑로 74 (대명동,930-1)|8시간|공중화장실|N
대명5동 치안센터 화장실|35.84307214|128.5831469|대명5동 치안센터|053-622-0112|대구광역시 남구 대명로 249 (대명동,1701-7)|8시간|공중화장실|N
남부경찰서 화장실|35.84307214|128.5831469|남부경찰서|053-650-2013|대구광역시 남구 대명로 249 (대명동,1701-7)|24시간|공중화장실|N
동대명지구대 화장실|35.8539014|128.5915225|동대명지구대|053-474-0112|대구광역시 남구 영선길 34 (대명동,2003)|24시간|공중화장실|N
대명동 우체국화장실|35.847439|128.57977150000002|대명동 우체국|053-623-0484|대구광역시 남구 현충로 163 (대명동,1725-6)|24시간|공중화장실|N
명동 치안센터|35.853151000000004|128.5776402|명동 치안센터|053-623-0112|대구광역시 남구 성당로48길 68 (대명동,2254)|24시간|공중화장실|N
서대명지구대|35.83720084|128.579507|서대명지구대|053-627-0112|대구광역시 남구 현충로 49|24시간|공중화장실|N
봉덕2동사무소|35.843825|128.60110600000002|봉덕2동사무소|053-664-3752|대구광역시 남구 이천로10길 50 (봉덕동)|8시간|공중화장실|N
봉덕3동사무소|35.8416973|128.59825759999998|봉덕3동사무소|053-664-3771|대구광역시 남구 이천로 10 (봉덕동)|8시간|공중화장실|N
이천동사무소|35.853660999999995|128.599451|이천동사무소|053-664-3712|대구광역시 남구 이천로28길 18 (이천동,383-22)|8시간|공중화장실|N
대명1동사무소|35.84049436|128.57745020000002|대명1동사무소|053-664-3792|대구광역시 남구 장전2길 13-2|8시간|공중화장실|N
대명2동사무소|35.855299|128.58624129999998|대명2동사무소|053-664-3812|대구광역시 남구 명덕로32길 30 (대명동,1827)|8시간|공중화장실|N
대명3동사무소|35.85229964|128.5790578|대명3동사무소|053-664-3832|대구광역시 남구 명덕로20길 115 (대명동,2144-3)|8시간|공중화장실|N
대명5동사무소|35.8432344|128.587884|대명5동사무소|053-664-3851|대구광역시 남구 대명로 58길 11|8시간|공중화장실|N
대명4동사무소|35.84849716|128.5724342|대명4동사무소|053-664-3871|대구광역시 남구 성명공원길 30-6 (대명동,3032-20)|8시간|공중화장실|N
대명9동사무소|35.83509159|128.5660918|대명9동사무소|053-664-3911|대구광역시 남구 대명남로 73 (대명동,1086-1)|8시간|공중화장실|N
대명6동사무소|35.83509159|128.56606399999998|대명6동사무소|053-664-3891|대구광역시 남구 대명남로 73 (대명동,1086-1)|8시간|공중화장실|N
대명10동사무소화장실|35.84002858|128.568929|대명10동사무소|053-664-3931|대구광역시 남구 대명복개로4길 166 (대명동,1624-21)|8시간|공중화장실|N
신서근린공원|35.86671541|128.72771129999998|대구광역시 동구청장|-|대구광역시 동구 동호로 98|09:00~17:00|공중화장실|N
신암3동주민센터|35.8795724|128.6231473|대구광역시 동구청장|-|대구광역시 동구 신암남로 67|09:00~17:00|공중화장실|N
궁전라벤더|35.88170669|128.61986570000002|(합)궁전라벤더|-|대구광역시 동구 아양로 52|09:00~17:00|공중화장실|N
대구보호관찰소|35.88832651|128.6375259|법무부|-|대구광역시 동구 아양로49길 17|09:00~17:00|공중화장실|N
e편한주유소|35.88593235|128.6283032|이명수|-|대구광역시 동구 아양로 139|09:00~17:00|공중화장실|N
대구아양초등학교|35.88746269|128.6374328|대구광역시 교육감|-|대구광역시 동구 아양로 221|06:00~24:00|공중화장실|Y
대구신성초등학교|35.89012297|128.6289427|대구광역시 교육감|-|대구광역시 동구 동북로71길 29|09:00~17:00|공중화장실|N
동흥주유소|35.87749616|128.607549|박유성|-|대구광역시 동구 신암로 62|09:00~17:00|공중화장실|N
대구축산업협동조합|35.891989|128.6222876|대구축산업협동조합|-|대구광역시 동구 동북로 296|09:00~17:00|공중화장실|N
신암우체국|35.8838308|128.6254655|우제국장|-|대구광역시 동구 아양로 106|09:00~17:00|공중화장실|N
관문시장(1)|35.83553626|128.5590622|관문시장|053-627-2610|대구광역시 남구 관문시장2길 43 (대명동,관문시장 1160)|8시간|개방화장실|N
